time,roll,pitch,yaw,accel_x,accel_y,accel_z,gyro_x,gyro_y,gyro_z,mag_x,mag_y,mag_z,quat,head,depth,distance,switch,duty
20190731_213753,-0.0031057331682358582,0.022749598207380303,-0.00010967357261012196,0.0,0.0,0.0,0.0,0.0,0.0,-31.022137021386396,-24.87941609818567,-134.94589508937912,"(0.9999341015162846, 0.011374454935175717, -0.0015533892423953807, -3.7170015242309244e-05)",2.5225287721980294,depth,0,0,0
20190731_213754,-0.012609988694122862,0.02276966801267993,-0.00040864199657954584,0.0,0.0,0.0,0.0,0.0,0.0,-35.31692699512827,-22.76668452771556,-138.04519597067616,"(0.9999153121486738, 0.011383073395017072, -0.006306869903951248, -0.00013252440829045558)",2.612699125058596,depth,0,0,0
20190731_213754,-0.0216235641000799,0.022723428508631408,-0.0006873827988538171,0.0,0.0,0.0,0.0,0.0,0.0,-32.740053010883145,-23.068503323497005,-138.89045984739354,"(0.9998769966079105, 0.011357089495220957, -0.010814777566502478, -0.00022081378829125943)",2.551397920542153,depth,0,0,0
20190731_213754,-0.03075511786057664,0.022774170686159237,-0.0010339735517632897,0.0,0.0,0.0,0.0,0.0,0.0,-36.462204321459446,-23.370322119278445,-132.41010345922697,"(0.9998169000886006, 0.011377542279312657, -0.015381840057200533, -0.0003417972475185741)",2.5802149666462655,depth,0,0,0
20190731_213754,-0.03966644785895204,0.02271669570750013,-0.001356742989587694,0.0,0.0,0.0,0.0,0.0,0.0,-30.449498358220815,-24.87941609818567,-136.6364228428139,"(0.9997387581795617, 0.011342414651951344, -0.01983834336946384, -0.0004529412834702297)",2.4248855071930886,depth,0,0,0
20190731_213754,-0.048216390670213514,0.022676178445491434,-0.00169407118253127,0.0,0.0,0.0,0.0,0.0,0.0,-32.740053010883145,-22.464865731934115,-133.81887658708928,"(0.9996450276609018, 0.011314130381381906, -0.024113902807604812, -0.0005734264847160743)",2.504149633543286,depth,0,0,0
20190731_213754,-0.05675822603047886,0.022666212278451305,-0.001941918548235001,0.0,0.0,0.0,0.0,0.0,0.0,-35.603246326711066,-24.87941609818567,-134.38238583823417,"(0.9995329879698496, 0.011300745416482214, -0.02838446757764259, -0.0006489325312649481)",2.477584340345108,depth,0,0,0
20190731_213754,-0.06504358448118196,0.022666626250598624,-0.00225056453236671,0.0,0.0,0.0,0.0,0.0,0.0,-32.740053010883145,-23.068503323497005,-133.25536733594436,"(0.9994068076969728, 0.011290483172652932, -0.03252669702047074, -0.0007561082017686183)",2.4453569563919193,depth,0,0,0
20190731_213754,-0.07329687131807572,0.02267687637291143,-0.002527729412548627,0.0,0.0,0.0,0.0,0.0,0.0,-34.744288331962686,-22.16304693615267,-135.7911589660965,"(0.9992640119663443, 0.011284267528439114, -0.03665216825445742, -0.0008475007488267552)",2.4833715636976454,depth,0,0,0
20190731_213754,-0.08134361768756553,0.02267968575776731,-0.002785569469375557,0.0,0.0,0.0,0.0,0.0,0.0,-33.31269167404873,-21.86122814037123,-136.07291359166894,"(0.9991084469513203, 0.011273583388897146, -0.04067372341413708, -0.0009304685511235621)",2.437691429801502,depth,0,0,0
20190731_213755,-0.08923454512074097,0.02267194469711537,-0.0030720378166879288,0.0,0.0,0.0,0.0,0.0,0.0,-34.744288331962686,-24.57759730240422,-134.10063121266174,"(0.9989402252858655, 0.011255929241984304, -0.04461694693247752, -0.0010287901382450293)",2.3806053636447375,depth,0,0,0
20190731_213755,-0.09701975957566362,0.022702723749369068,-0.003408035188500359,0.0,0.0,0.0,0.0,0.0,0.0,-30.735817689803604,-24.57759730240422,-132.9736127103719,"(0.9987587641668284, 0.01125512457515536, -0.04850698165577783, -0.0011514779171402942)",2.257240164384055,depth,0,0,0
20190731_213755,-0.10469472871858518,0.022616271722941707,-0.003679224806004578,0.0,0.0,0.0,0.0,0.0,0.0,-33.02637234246593,-20.352134161464008,-136.35466821724143,"(0.9985657396392651, 0.011196137402425185, -0.05234079992621889, -0.0012453068043861467)",2.392146572667962,depth,0,0,0
20190731_213755,-0.11222011913426062,0.022494907817300173,-0.0039200403618984345,0.0,0.0,0.0,0.0,0.0,0.0,-32.740053010883145,-23.068503323497005,-134.38238583823417,"(0.9983624097551664, 0.011119582688883151, -0.056098977096688575, -0.0013260608537297317)",2.2866806115352394,depth,0,0,0
20190731_213755,-0.11953458674013827,0.022471827062157248,-0.004218888245722999,0.0,0.0,0.0,0.0,0.0,0.0,-34.744288331962686,-20.9557717530269,-134.10063121266174,"(0.998150652362616, 0.011089597819318208, -0.05975147238541608, -0.00143441837159815)",2.370359023863356,depth,0,0,0
20190731_213755,-0.12675178582794006,0.022535163206341684,-0.004480366854567591,0.0,0.0,0.0,0.0,0.0,0.0,-34.1716496687971,-22.16304693615267,-135.22764971495155,"(0.9979281636803343, 0.011102825400012672, -0.06335448751262268, -0.001521944067933489)",2.2902994440412745,depth,0,0,0
20190731_213755,-0.1337591768339795,0.02254168462729575,-0.00473781957021022,0.0,0.0,0.0,0.0,0.0,0.0,-33.59901100563152,-21.559409344589785,-135.7911589660965,"(0.9977000054106604, 0.011087072077873676, -0.06685194929518362, -0.0016102520743177643)",2.2564824362474982,depth,0,0,0
20190731_213755,-0.14058509303342923,0.022584993539452862,-0.004952978554342297,0.0,0.0,0.0,0.0,0.0,0.0,-34.45796900037989,-23.068503323497005,-133.25536733594436,"(0.9974657993118429, 0.011090411801828019, -0.07025787698201148, -0.0016771079968169653)",2.224989191025181,depth,0,0,0
20190731_213755,-0.14747949351583794,0.022482441861177673,-0.005223910278359716,0.0,0.0,0.0,0.0,0.0,0.0,-33.885330337214306,-24.87941609818567,-133.25536733594436,"(0.9972182078846267, 0.011017980048464843, -0.07369731269785776, -0.0017765359944087304)",2.1354716760976067,depth,0,0,0
20190731_213756,-0.15419071539748413,0.022507824405159606,-0.0054300985866282915,0.0,0.0,0.0,0.0,0.0,0.0,-32.45373367930035,-22.76668452771556,-134.66414046380666,"(0.9969651667887384, 0.011011108752487902, -0.07704431095451372, -0.001840066164134149)",2.0914345192081765,depth,0,0,0
20190731_213756,-0.16059093177867287,0.02247961920450017,-0.005676214418239024,0.0,0.0,0.0,0.0,0.0,0.0,-35.889565658293854,-21.559409344589785,-134.10063121266174,"(0.9967136326545157, 0.010975686832566351, -0.08023561816153686, -0.0019272668285935715)",2.2145748352925327,depth,0,0,0
20190731_213756,-0.16695494124392374,0.022376413144157725,-0.00594264299977959,0.0,0.0,0.0,0.0,0.0,0.0,-30.163179026638023,-21.559409344589785,-132.9736127103719,"(0.9964537825138304, 0.010901230387064637, -0.08340809307743775, -0.0020279297604552265)",1.9577826386955854,depth,0,0,0
20190731_213756,-0.1732021202271939,0.022261216414954692,-0.006180635584387627,0.0,0.0,0.0,0.0,0.0,0.0,-31.59477568455198,-23.068503323497005,-134.38238583823417,"(0.9961889769562491, 0.010821340597176163, -0.086521349779832, -0.002115847541231651)",1.9449116427834572,depth,0,0,0
20190731_213756,-0.18053294801509395,0.02224883499826402,-0.006497485627660485,0.0,0.0,0.0,0.0,0.0,0.0,-35.889565658293854,-23.973959710841335,-134.66414046380666,"(0.9958651259840844, 0.010786004362797318, -0.09017388055548128, -0.002232537604517947)",2.055239451035004,depth,0,0,0
20190731_213756,-0.18627015003101546,0.02214365992943064,-0.006774073658330858,0.0,0.0,0.0,0.0,0.0,0.0,-33.885330337214306,-23.67214091505989,-132.1283488336545,"(0.9956028132892333, 0.010708580722097327, -0.09303159264279783, -0.0023424858221252304)",1.9695504721106945,depth,0,0,0
20190731_213756,-0.19189026496111972,0.022112618419919752,-0.006920465979683568,0.0,0.0,0.0,0.0,0.0,0.0,-35.31692699512827,-22.16304693615267,-135.7911589660965,"(0.9953376624932606, 0.010673706411989994, -0.09582964882723848, -0.0023849569243699297)",1.9964409231521172,depth,0,0,0
20190731_213756,-0.19759292564830724,0.022137283511128706,-0.007219489569478889,0.0,0.0,0.0,0.0,0.0,0.0,-33.31269167404873,-21.25759054880834,-136.07291359166894,"(0.9950600977160555, 0.010658342384381857, -0.09866889466690365, -0.0025001792221045747)",1.8819570003054862,depth,0,0,0
20190731_213756,-0.20326910583282434,0.022132173242039428,-0.007550416975295682,0.0,0.0,0.0,0.0,0.0,0.0,-31.59477568455198,-22.464865731934115,-133.81887658708928,"(0.9947758902677201, 0.010625671594213735, -0.10149429458053788, -0.0026327576485478243)",1.7650663403751878,depth,0,0,0
20190731_213757,-0.20885560773888584,0.022094128393371253,-0.007741910080601358,0.0,0.0,0.0,0.0,0.0,0.0,-33.02637234246593,-22.16304693615267,-134.10063121266174,"(0.9944886909423478, 0.010583102702696152, -0.10427349432910411, -0.0026981299742040764)",1.7965966554451587,depth,0,0,0
20190731_213757,-0.21476126067628817,0.02211074138953432,-0.007994944636692166,0.0,0.0,0.0,0.0,0.0,0.0,-33.885330337214306,-26.08669128131144,-132.69185808479943,"(0.9941762726863794, 0.01056298333569467, -0.10721092106454869, -0.0027893753706940104)",1.7716393821446443,depth,0,0,0
20190731_213757,-0.2201241234495033,0.02217859069609961,-0.008213595684191973,0.0,0.0,0.0,0.0,0.0,0.0,-33.885330337214306,-23.068503323497005,-132.1283488336545,"(0.9938847902567537, 0.010570816691095471, -0.10987757234714837, -0.0028636734920213886)",1.772306606028244,depth,0,0,0
20190731_213757,-0.2254743250300312,0.022226820339732813,-0.008409197264849629,0.0,0.0,0.0,0.0,0.0,0.0,-33.885330337214306,-21.86122814037123,-134.38238583823417,"(0.993587006590594, 0.010569555682539308, -0.11253699378365255, -0.0029274318360637624)",1.7223986874076376,depth,0,0,0
20190731_213757,-0.2305711158914206,0.0223313206662507,-0.008699480692141938,0.0,0.0,0.0,0.0,0.0,0.0,-33.59901100563152,-23.370322119278445,-131.84659420808205,"(0.9932962453347056, 0.010590887620929336, -0.11507034107272426, -0.0030362326630120106)",1.6910109837314449,depth,0,0,0
20190731_213757,-0.23558380241788016,0.022322465871430396,-0.00885381698726321,0.0,0.0,0.0,0.0,0.0,0.0,-33.885330337214306,-23.068503323497005,-131.5648395825096,"(0.99300477363761, 0.010563338174290086, -0.1175602925816045, -0.003084319643347535)",1.676147027842102,depth,0,0,0
20190731_213757,-0.24042080334242275,0.022414055630473325,-0.009236258894529286,0.0,0.0,0.0,0.0,0.0,0.0,-33.31269167404873,-22.464865731934115,-133.81887658708928,"(0.992716701841322, 0.010572025543965155, -0.11996366446588831, -0.0032405815992751054)",1.590263099732947,depth,0,0,0
20190731_213757,-0.24559390933796957,0.022014762301303732,-0.009151774796442016,0.0,0.0,0.0,0.0,0.0,0.0,-34.45796900037989,-23.67214091505989,-133.25536733594436,"(0.9924055784296621, 0.010363701730293936, -0.12252986150929801, -0.0031929025424434713)",1.6144882084515224,depth,0,0,0
20190731_213757,-0.25029951509097004,0.021403108196385554,-0.009080669168871118,0.0,0.0,0.0,0.0,0.0,0.0,-29.304221031889643,-21.86122814037123,-133.81887658708928,"(0.992118010633503, 0.010050839738478104, -0.12486309457529533, -0.003168786874002442)",1.3201110046436142,depth,0,0,0
20190731_213758,-0.25566672968344156,0.020904256499235167,-0.00878535280638348,0.0,0.0,0.0,0.0,0.0,0.0,-33.02637234246593,-22.76668452771556,-132.41010345922697,"(0.9917825432926923, 0.009806584567259377, -0.12752283085693894, -0.0030241245405205042)",1.488684367297357,depth,0,0,0
20190731_213758,-0.2596232862136838,0.021170506348338697,-0.00908307451548547,0.0,0.0,0.0,0.0,0.0,0.0,-34.45796900037989,-22.464865731934115,-136.6364228428139,"(0.9915267391100215, 0.009908032597947928, -0.12948645364606934, -0.003132864831103013)",1.474613377804154,depth,0,0,0
20190731_213758,-0.26427621330245754,0.021208620282487725,-0.009325320494594218,0.0,0.0,0.0,0.0,0.0,0.0,-33.31269167404873,-25.48305368974855,-137.1999320939588,"(0.9912224603372116, 0.009897268373080723, -0.1317940819454063, -0.003224618731572643)",1.4033303819826104,depth,0,0,0
20190731_213758,-0.269102975645496,0.021068312013217273,-0.009480469357679103,0.0,0.0,0.0,0.0,0.0,0.0,-31.88109501613477,-23.973959710841335,-135.7911589660965,"(0.9909021803177283, 0.009802788491410162, -0.13418639817487626, -0.003284040836936502)",1.3161234611875656,depth,0,0,0
20190731_213758,-0.273003437156019,0.02106751398869309,-0.009740512811511575,0.0,0.0,0.0,0.0,0.0,0.0,-32.16741434771756,-22.464865731934115,-134.94589508937912,"(0.9906383659853418, 0.009772759853217131, -0.13611987406853188, -0.0033912956683305076)",1.29611549801296,depth,0,0,0
20190731_213758,-0.2775153290239547,0.021074815825909803,-0.009964085252386486,0.0,0.0,0.0,0.0,0.0,0.0,-33.02637234246593,-23.370322119278445,-134.66414046380666,"(0.9903285775914321, 0.009746766642425285, -0.13835542360036207, -0.003476450217338793)",1.3200643154963245,depth,0,0,0
20190731_213758,-0.2816875119447381,0.021002656009034806,-0.010101264575645093,0.0,0.0,0.0,0.0,0.0,0.0,-33.59901100563152,-24.57759730240422,-138.60870522182108,"(0.9900381288129223, 0.009688060723962073, -0.1404215468980403, -0.003526207988493507)",1.2839262849045803,depth,0,0,0
20190731_213758,-0.28546503698876124,0.02102293444820071,-0.010326268186310925,0.0,0.0,0.0,0.0,0.0,0.0,-33.02637234246593,-20.352134161464008,-137.48168671953124,"(0.9897708398368734, 0.009669842197658159, -0.14229233841117417, -0.003615133464024996)",1.1826878555922207,depth,0,0,0
20190731_213758,-0.2895583789189775,0.02097816548850076,-0.010471941151644933,0.0,0.0,0.0,0.0,0.0,0.0,-33.02637234246593,-22.76668452771556,-135.7911589660965,"(0.9894777127174982, 0.009623642071023349, -0.14431836350168162, -0.003667629320656991)",1.221693530529046,depth,0,0,0
20190731_213759,-0.2934138916649743,0.021036298668283063,-0.010687946424227407,0.0,0.0,0.0,0.0,0.0,0.0,-34.1716496687971,-22.16304693615267,-135.22764971495155,"(0.9891971943276662, 0.009623679330016585, -0.14622668173214567, -0.003748743793916351)",1.2449569685277218,depth,0,0,0
20190731_213759,-0.2971496987978304,0.021041210903086187,-0.010982912789297134,0.0,0.0,0.0,0.0,0.0,0.0,-34.45796900037989,-23.67214091505989,-132.69185808479943,"(0.98892195508072, 0.009591506792668014, -0.1480755451846353, -0.003873328677733643)",1.2891025130940372,depth,0,0,0
20190731_213759,-0.301053655702776,0.02107754673757355,-0.011151650654220004,0.0,0.0,0.0,0.0,0.0,0.0,-33.31269167404873,-23.67214091505989,-132.1283488336545,"(0.9886307516390863, 0.009583153757657241, -0.1500064618217743, -0.003932110032178916)",1.2258004104661948,depth,0,0,0
20190731_213759,-0.3046897882367107,0.02107550783358266,-0.011419482235788609,0.0,0.0,0.0,0.0,0.0,0.0,-32.16741434771756,-22.464865731934115,-134.38238583823417,"(0.9883560844978979, 0.009548906236259565, -0.15180485322074042, -0.004044151864680167)",1.1092834156326394,depth,0,0,0
20190731_213759,-0.30831079756174173,0.021172869859119606,-0.011709580211872777,0.0,0.0,0.0,0.0,0.0,0.0,-33.885330337214306,-24.87941609818567,-133.25536733594436,"(0.9880787783857911, 0.009561600161412873, -0.15359557789064765, -0.004159562288772493)",1.2108433743188576,depth,0,0,0
20190731_213759,-0.3116980216838645,0.02113981247323807,-0.011829243197043374,0.0,0.0,0.0,0.0,0.0,0.0,-34.45796900037989,-23.67214091505989,-132.69185808479943,"(0.9878173456283569, 0.009523418727263125, -0.15526924833403385, -0.0042019868248717625)",1.2029439488598908,depth,0,0,0
20190731_213759,-0.3155203779314349,0.02085388394863372,-0.011940489326299465,0.0,0.0,0.0,0.0,0.0,0.0,-35.31692699512827,-25.78487248553,-133.53712196151682,"(0.9875201447000448, 0.009359178128074469, -0.15715674302133129, -0.004257665944698423)",1.235119520591393,depth,0,0,0
20190731_213759,-0.3185934151822989,0.021023525575886784,-0.012185988672287361,0.0,0.0,0.0,0.0,0.0,0.0,-31.59477568455198,-23.068503323497005,-132.1283488336545,"(0.9872763710250427, 0.009411855595593986, -0.15867538555173627, -0.0043481271690039925)",1.054153293636475,depth,0,0,0
20190731_213759,-0.3217047135375842,0.021120902860333503,-0.012368513614299402,0.0,0.0,0.0,0.0,0.0,0.0,-33.02637234246593,-24.57759730240422,-132.41010345922697,"(0.9870276725642417, 0.009433328169404806, -0.16021208922863547, -0.004412751642674672)",1.1144908722560811,depth,0,0,0
20190731_213800,-0.32519206778672455,0.021235132284576533,-0.012507951920307073,0.0,0.0,0.0,0.0,0.0,0.0,-32.45373367930035,-25.181234893967105,-133.53712196151682,"(0.986746191242308, 0.00946478917488665, -0.1619337768017158, -0.004452388730303777)",1.0753641489540704,depth,0,0,0
20190731_213800,-0.3281879129877936,0.021410733704254552,-0.012677350366319666,0.0,0.0,0.0,0.0,0.0,0.0,-34.1716496687971,-20.352134161464008,-132.9736127103719,"(0.9865015045954915, 0.009525734930539057, -0.1634128279865373, -0.00450438167867149)",1.0243673382313367,depth,0,0,0
20190731_213800,-0.33115705229770565,0.021673656960286825,-0.01305364885011736,0.0,0.0,0.0,0.0,0.0,0.0,-32.740053010883145,-24.87941609818567,-133.81887658708928,"(0.9862559017658019, 0.009612478314856959, -0.1648795446214031, -0.004651049151545717)",1.0462745765623649,depth,0,0,0
20190731_213800,-0.3345559888184406,0.02170027747146394,-0.013323868303622276,0.0,0.0,0.0,0.0,0.0,0.0,-35.31692699512827,-24.57759730240422,-131.84659420808205,"(0.9859737449669932, 0.00958910956378252, -0.16655673541873406, -0.0047620478987672405)",1.1354509329656848,depth,0,0,0
20190731_213800,-0.33777268937649524,0.021832001256450698,-0.013621263359446873,0.0,0.0,0.0,0.0,0.0,0.0,-32.16741434771756,-23.068503323497005,-132.1283488336545,"(0.9857034701801863, 0.00961554515193253, -0.16814401543556012, -0.00487854890061821)",0.978012964947478,depth,0,0,0
20190731_213800,-0.34062794542582325,0.021843553539333246,-0.013825774681564597,0.0,0.0,0.0,0.0,0.0,0.0,-31.022137021386396,-24.275778506622775,-134.38238583823417,"(0.9854620702496616, 0.009591686537472709, -0.16955203559653018, -0.004961337893229239)",0.9327204307687583,depth,0,0,0
20190731_213800,-0.3433176813742673,0.02196973235308177,-0.014089528804944722,0.0,0.0,0.0,0.0,0.0,0.0,-31.59477568455198,-21.86122814037123,-135.50940434052404,"(0.985232088488123, 0.00961964949744116, -0.17087874557616087, -0.00506443157675552)",0.8673286228222757,depth,0,0,0
20190731_213800,-0.3459450103951313,0.022026854030021196,-0.014276270751809301,0.0,0.0,0.0,0.0,0.0,0.0,-32.45373367930035,-23.973959710841335,-134.66414046380666,"(0.9850062113726147, 0.00962011515230616, -0.1721738705728604, -0.0051356824068816)",0.9412109496526008,depth,0,0,0
20190731_213800,-0.34892787991207314,0.02229667876452292,-0.014461608288775763,0.0,0.0,0.0,0.0,0.0,0.0,-32.16741434771756,-23.068503323497005,-133.25536733594436,"(0.9847467795114893, 0.009723554358079313, -0.17364430135193828, -0.005185493264202195)",0.9138830772791846,depth,0,0,0
20190731_213801,-0.3513934008069536,0.022495049704823012,-0.014680562604276647,0.0,0.0,0.0,0.0,0.0,0.0,-31.308456352969188,-23.370322119278445,-135.22764971495155,"(0.9845306269935783, 0.009790891774150578, -0.17485967637974434, -0.00526084843630813)",0.8649965844234621,depth,0,0,0.03
20190731_213801,-0.3539645267281611,0.022579668252901825,-0.014836007015567542,0.0,0.0,0.0,0.0,0.0,0.0,-32.16741434771756,-23.068503323497005,-131.00133033136467,"(0.9843044047073383, 0.009807022287343857, -0.17612615505124493, -0.0053140092635166674)",0.866266987397259,depth,0,0,0.12
20190731_213801,-0.3566097413502448,0.022725264796567994,-0.01511446866480689,0.0,0.0,0.0,0.0,0.0,0.0,-31.88109501613477,-22.76668452771556,-132.9736127103719,"(0.9840693552094256, 0.009841662826063241, -0.17742956699126722, -0.005421675738619901)",0.8681886699658442,depth,0,0,0.19500000000000006
20190731_213801,-0.3590756911765837,0.02278418441201057,-0.015384098250389557,0.0,0.0,0.0,0.0,0.0,0.0,-31.308456352969188,-19.748496569901125,-132.9736127103719,"(0.9838490223549675, 0.009834901427888416, -0.17864421379232606, -0.005533606744276202)",0.7606485858657449,depth,0,0,0.27000000000000013
20190731_213801,-0.3652810468703929,0.022770901402087006,-0.01565524836990454,0.0,0.0,0.0,0.0,0.0,0.0,-34.744288331962686,-23.370322119278445,-133.53712196151682,"(0.983289858221722, 0.009773897937390646, -0.18169710876350048, -0.005629058926698821)",0.9215278039060486,depth,0,0,0.3450000000000002
20190731_213801,-0.3757596440035859,0.022549823274716746,-0.015818917565589802,0.0,0.0,0.0,0.0,0.0,0.0,-35.03060766354548,-23.67214091505989,-136.6364228428139,"(0.9823259282387132, 0.009598728268879305, -0.18684634099751712, -0.005663919262317003)",0.8595193876369115,depth,0,0,0.42000000000000026
20190731_213801,-0.3765029609836942,0.022622159078383174,-0.016939297109117006,0.0,0.0,0.0,0.0,0.0,0.0,-33.02637234246593,-22.76668452771556,-133.53712196151682,"(0.9822528142259399, 0.009525707917240889, -0.18721697561543785, -0.006202731277849671)",0.8161661009581688,depth,0,0,0.49500000000000033
20190731_213801,-0.3777149156432467,0.023005112172228753,-0.015352100514844733,0.0,0.0,0.0,0.0,0.0,0.0,-32.16741434771756,-24.87941609818567,-131.00133033136467,"(0.9821420365096051, 0.009856483896336133, -0.18780556222827674, -0.005379650740330572)",0.8654843496291251,depth,0,0,0.5700000000000004
20190731_213801,-0.3804577576644854,0.022960265808119138,-0.015480147381243193,0.0,0.0,0.0,0.0,0.0,0.0,-33.885330337214306,-25.48305368974855,-133.25536733594436,"(0.9818836652352603, 0.009809046980606832, -0.18915277806628836, -0.00542928092009432)",0.8881624779322093,depth,0,0,0.6450000000000005
20190731_213802,-0.3826074624472645,0.023033590935007,-0.01565084903116714,0.0,0.0,0.0,0.0,0.0,0.0,-34.45796900037989,-23.068503323497005,-132.69185808479943,"(0.9816791492297118, 0.009818295941469895, -0.19020904960096827, -0.005492402236864983)",0.8448620724353331,depth,0,0,0.7200000000000005
20190731_213802,-0.3849709482371162,0.02289499198480548,-0.016699545464703487,0.0,0.0,0.0,0.0,0.0,0.0,-34.1716496687971,-23.973959710841335,-133.53712196151682,"(0.9814515580982636, 0.009638263836271643, -0.19137366845851947, -0.006005164231044023)",0.8419506535930976,depth,0,0,0.8100000000000006
20190731_213802,-0.38724504355753536,0.023579312850481093,-0.010531725934632105,0.0,0.0,0.0,0.0,0.0,0.0,-33.885330337214306,-26.08669128131144,-128.18378407564006,"(0.98124379007223, 0.010555766522291553, -0.1924598608057893, -0.0028986576942961716)",0.9284941447019595,depth,0,0,0.8850000000000007
20190731_213802,-0.3892069004410333,0.023477003612519035,-0.01207058616288899,0.0,0.0,0.0,0.0,0.0,0.0,-33.885330337214306,-21.86122814037123,-132.1283488336545,"(0.9810526676686707, 0.010349454356477413, -0.193430147101197, -0.003651061094682555)",0.7797493031647547,depth,0,0,0.9600000000000007
20190731_213802,-0.3924263245328176,0.023752459519983383,-0.009978119225294544,0.0,0.0,0.0,0.0,0.0,0.0,-35.03060766354548,-24.275778506622775,-135.50940434052404,"(0.9807420544386881, 0.010675351139553625, -0.19499850001262894, -0.0025776978592094227)",0.8195111647556564,depth,0,0,1.0350000000000006
20190731_213802,-0.39568820439704877,0.02653560314578027,0.020256640966045864,0.0,0.0,0.0,0.0,0.0,0.0,-31.59477568455198,-25.48305368974855,-128.747293326785,"(0.980329613545729, 0.014998504883012157, -0.19639681361033443, 0.012537354595903777)",0.816802162114221,depth,0,0,1.11
20190731_213802,-0.39856985007239976,0.02654618271613893,0.02358684627418237,0.0,0.0,0.0,0.0,0.0,0.0,-32.45373367930035,-28.80306044334443,-127.3385201989227,"(0.9800229012428013, 0.015343574800372867, -0.1977838258329894, 0.014186119654563685)",0.9091669311611291,depth,0,0,1.1849999999999996
20190731_213802,-0.3997796287748583,0.02645218249250518,0.02341554589822396,0.0,0.0,0.0,0.0,0.0,0.0,-32.45373367930035,-25.181234893967105,-126.77501094777776,"(0.979904830538994, 0.015285927789094308, -0.19837860932167795, 0.014099321315900566)",0.8366487804427148,depth,0,0,1.2599999999999991
20190731_213802,-0.4014966314013697,0.026328571404406222,0.023305553934808335,0.0,0.0,0.0,0.0,0.0,0.0,-32.740053010883145,-26.69032887287433,-131.00133033136467,"(0.9797356176914617, 0.015222008328163577, -0.19922154753730764, 0.014042253595046336)",0.8284082003744122,depth,0,0,1.3349999999999986
20190731_213803,-0.40329241972991714,0.026198668659692677,0.023131501718046118,0.0,0.0,0.0,0.0,0.0,0.0,-31.308456352969188,-26.38851007709288,-129.59255720350237,"(0.9795582781482924, 0.015148859460903398, -0.20010345229471568, 0.013953499486607056)",0.8001678868228922,depth,0,0,1.4099999999999981
20190731_213803,-0.40504867698213415,0.026132457569184874,0.022961170653203734,0.0,0.0,0.0,0.0,0.0,0.0,-29.590540363472435,-30.010335626470212,-129.02904795235744,"(0.9793836095052176, 0.015106961120549166, -0.20096535594142292, 0.013872666274756935)",0.8384928667748632,depth,0,0,1.4999999999999976
20190731_213803,-0.40424788370079956,0.026079397266401138,0.0222504344963285,0.0,0.0,0.0,0.0,0.0,0.0,-30.735817689803604,-24.57759730240422,-127.90202945006762,"(0.9794693795405698, 0.01500624604722999, -0.2005788870422894, 0.013515072876524478)",0.7612778063857399,depth,0,0,1.4400000000000004
20190731_213803,-0.4033931800351774,0.026199042648768562,0.022529648038058004,0.0,0.0,0.0,0.0,0.0,0.0,-33.02637234246593,-25.181234893967105,-131.28308495693713,"(0.9795523326750397, 0.015089249229619912, -0.2001573526070877, 0.013659293755416973)",0.7931340513243351,depth,0,0,1.3650000000000009
20190731_213803,-0.4051224763670303,0.02609578031072108,0.022452867463083715,0.0,0.0,0.0,0.0,0.0,0.0,-30.449498358220815,-25.48305368974855,-127.62027482449514,"(0.9793799526083639, 0.015038233246128623, -0.20100557984690248, 0.013620456676805311)",0.7761162531047356,depth,0,0,1.2900000000000014
20190731_213803,-0.40689456757121634,0.02603494745583405,0.02232305068891638,0.0,0.0,0.0,0.0,0.0,0.0,-31.88109501613477,-28.199422851781538,-125.08448319434301,"(0.9792025532261887, 0.015002757304682266, -0.20187471705548268, 0.013560075307262576)",0.8827005053785498,depth,0,0,1.2150000000000019
20190731_213803,-0.4086361843651208,0.026076122510843243,0.02212859875184512,0.0,0.0,0.0,0.0,0.0,0.0,-32.45373367930035,-26.38851007709288,-130.1560664546473,"(0.979027145796544, 0.01501042487924463, -0.20272857029873761, 0.013478194354095268)",0.8029528143793132,depth,0,0,1.1400000000000023
20190731_213803,-0.4102573318111794,0.02600134556990335,0.021996700401955987,0.0,0.0,0.0,0.0,0.0,0.0,-30.449498358220815,-24.87941609818567,-129.87431182907483,"(0.9788637163393226, 0.014967036436787505, -0.2035236163509438, 0.013414553369531897)",0.7279543634651443,depth,0,0,1.0650000000000028
20190731_213803,-0.41177320368307196,0.025936588853874648,0.02189001298725312,0.0,0.0,0.0,0.0,0.0,0.0,-32.45373367930035,-25.181234893967105,-127.3385201989227,"(0.9787101636897941, 0.014930600290878263, -0.2042667491917192, 0.013363676137122369)",0.7946704837624818,depth,0,0,0.9900000000000032
20190731_213804,-0.41325486874390316,0.025905347030811366,0.021730971349135274,0.0,0.0,0.0,0.0,0.0,0.0,-30.163179026638023,-26.38851007709288,-128.46553870121252,"(0.9785596549846204, 0.014904981476722267, -0.20499319114316616, 0.013290400614750179)",0.8329376398784893,depth,0,0,0.9150000000000031
20190731_213804,-0.41477845002792996,0.02579165336245298,0.021550519503874918,0.0,0.0,0.0,0.0,0.0,0.0,-31.88109501613477,-26.99214766865577,-130.1560664546473,"(0.9784050401944739, 0.014836871057703052, -0.20574072831159837, 0.013198382214493841)",0.7873077337424709,depth,0,0,0.8400000000000031
20190731_213804,-0.41615848166461117,0.025816859935754114,0.021399967066974647,0.0,0.0,0.0,0.0,0.0,0.0,-33.59901100563152,-25.78487248553,-130.1560664546473,"(0.9782634596320482, 0.014839101589798962, -0.20641678488352458, 0.013134516781833512)",0.791696693097521,depth,0,0,0.780000000000003
20190731_213804,-0.4176733337793051,0.025706550630141323,0.021261013402438328,0.0,0.0,0.0,0.0,0.0,0.0,-30.163179026638023,-24.57759730240422,-132.9736127103719,"(0.978108356096482, 0.014776666639465648, -0.20715948274471369, 0.013063022858694118)",0.6716622496933728,depth,0,0,0.6900000000000029
20190731_213804,-0.419150553215015,0.025627758396181338,0.02115097887203904,0.0,0.0,0.0,0.0,0.0,0.0,-32.740053010883145,-27.293966464437215,-129.87431182907483,"(0.9779561806462078, 0.014732410188704118, -0.20788323397725855, 0.013008683909985178)",0.8010564496782823,depth,0,0,0.6300000000000029
20190731_213804,-0.4204584128823018,0.025672284114016713,0.021031830221610762,0.0,0.0,0.0,0.0,0.0,0.0,-32.16741434771756,-25.48305368974855,-131.00133033136467,"(0.9778203027500161, 0.014746773979848532, -0.2085233301633105, 0.012961827211360275)",0.7371491481938991,depth,0,0,0.5550000000000028
20190731_213804,-0.4215575850855736,0.025639118692213206,0.020818822936116355,0.0,0.0,0.0,0.0,0.0,0.0,-33.02637234246593,-25.181234893967105,-131.84659420808205,"(0.9777070281116934, 0.01471247244209029, -0.20906250917942856, 0.012859921898770985)",0.7359811856778633,depth,0,0,0.48000000000000276
20190731_213804,-0.42293364999628774,0.025617451181057748,0.02062739070757272,0.0,0.0,0.0,0.0,0.0,0.0,-31.022137021386396,-24.275778506622775,-130.43782108021975,"(0.9775641616361458, 0.014686960726867619, -0.2097367383524143, 0.012771204113865679)",0.687488528133224,depth,0,0,0.4050000000000027
20190731_213804,-0.42409756887186006,0.025628010724251304,0.020460977081891787,0.0,0.0,0.0,0.0,0.0,0.0,-32.45373367930035,-26.99214766865577,-128.46553870121252,"(0.9774427697828701, 0.014678923405916349, -0.21030679241624228, 0.012697010294790088)",0.78834804820068,depth,0,0,0.3150000000000026
20190731_213805,-0.4252820612930238,0.02555260336335833,0.020292294938266467,0.0,0.0,0.0,0.0,0.0,0.0,-31.88109501613477,-24.57759730240422,-129.02904795235744,"(0.9773195133415632, 0.014628611503444676, -0.21088738830335063, 0.012612772172811322)",0.7163275194517571,depth,0,0,0.24000000000000254
20190731_213805,-0.4265433272375016,0.025520690425266467,0.020171891189588467,0.0,0.0,0.0,0.0,0.0,0.0,-30.735817689803604,-26.99214766865577,-128.46553870121252,"(0.9771871577626952, 0.014604836690730991, -0.21150479169504444, 0.012557091181423861)",0.7502050338291907,depth,0,0,0.16500000000000248
20190731_213805,-0.42783569828133244,0.02552601047784562,0.019965294395894038,0.0,0.0,0.0,0.0,0.0,0.0,-33.02637234246593,-25.181234893967105,-130.7195757057922,"(0.9770513736676602, 0.014590143213620869, -0.21213770173990862, 0.01246340385504592)",0.7292964136584618,depth,0,0,0.09000000000000245
20190731_213805,-0.4290224368072874,0.02550459038772744,0.019816389638687947,0.0,0.0,0.0,0.0,0.0,0.0,-31.308456352969188,-26.38851007709288,-129.02904795235744,"(0.9769262596916986, 0.014568020589578321, -0.21271866746142623, 0.0123945316299189)",0.7365080387350987,depth,0,0,0.030000000000002455
20190731_213805,-0.4302675804879088,0.025491782373635623,0.019664535072844484,0.0,0.0,0.0,0.0,0.0,0.0,-33.02637234246593,-26.38851007709288,-130.1560664546473,"(0.9767945159619364, 0.014549901698447438, -0.21332805122667198, 0.012325441455875958)",0.7544348478246649,depth,0,0,-0.04499999999999754
20190731_213805,-0.43142128721524653,0.025442403367857497,0.019510750093013847,0.0,0.0,0.0,0.0,0.0,0.0,-32.45373367930035,-28.199422851781538,-128.46553870121252,"(0.976672457130989, 0.014513310039058341, -0.21389293475627405, 0.012251031580018928)",0.7934921913400046,depth,0,0,-0.11999999999999754
20190731_213805,-0.432660155267847,0.025422919463826146,0.019301727768762936,0.0,0.0,0.0,0.0,0.0,0.0,-33.885330337214306,-26.08669128131144,-129.87431182907483,"(0.9765410438993392, 0.014485592018218843, -0.2144995452196557, 0.012153283689272477)",0.760251121908458,depth,0,0,-0.19499999999999756
20190731_213805,-0.4338830596068582,0.02540839262228192,0.01917129132858783,0.0,0.0,0.0,0.0,0.0,0.0,-32.45373367930035,-26.99214766865577,-129.59255720350237,"(0.9764104546932854, 0.014468563714995254, -0.2150976778108525, 0.01209436356554172)",0.7524799646485684,depth,0,0,-0.26999999999999763
20190731_213806,-0.434988829279581,0.025412082162362144,0.018997611498760676,0.0,0.0,0.0,0.0,0.0,0.0,-32.740053010883145,-25.48305368974855,-128.747293326785,"(0.9762922701468189, 0.014455299823159984, -0.21563875021312068, 0.012015696613886583)",0.7298446145704255,depth,0,0,-0.3449999999999977
20190731_213806,-0.43327506172888614,0.02550664538768015,0.018833210641665862,0.0,0.0,0.0,0.0,0.0,0.0,-30.735817689803604,-25.78487248553,-127.90202945006762,"(0.9764771912114535, 0.014478209420007666, -0.21480268041127012, 0.011936707415144568)",0.6765473287123173,depth,0,0,-0.40499999999999775
20190731_213806,-0.4336010466231927,0.02549828699251894,0.0186922943293546,0.0,0.0,0.0,0.0,0.0,0.0,-31.59477568455198,-27.897604056000105,-129.3108025779299,"(0.9764430279687638, 0.014460034666835575, -0.21496291363081016, 0.01186871062832052)",0.7587407011048566,depth,0,0,-0.4799999999999978
20190731_213806,-0.4344221148589807,0.02551222038593712,0.018507681380653843,0.0,0.0,0.0,0.0,0.0,0.0,-29.876859695055224,-26.08669128131144,-128.747293326785,"(0.9763555916893607, 0.014449576845782275, -0.21536503171215512, 0.011784371918728711)",0.694810201842359,depth,0,0,-0.5549999999999978
20190731_213806,-0.43458186245579533,0.02556750344062448,0.018286295244784045,0.0,0.0,0.0,0.0,0.0,0.0,-31.88109501613477,-25.78487248553,-126.21150169663287,"(0.9763392675617493, 0.014453218318447206, -0.21544429566599735, 0.01168308872723496)",0.7443500328542092,depth,0,0,-0.6299999999999979
20190731_213806,-0.43537467121224155,0.02554036176954836,0.018031803288252837,0.0,0.0,0.0,0.0,0.0,0.0,-31.022137021386396,-26.69032887287433,-128.747293326785,"(0.976255372274456, 0.01441495120684566, -0.2158333184435922, 0.011560101063336157)",0.7243303802944271,depth,0,0,-0.719999999999998
20190731_213806,-0.4364854381632163,0.025431639652330043,0.017871486809637502,0.0,0.0,0.0,0.0,0.0,0.0,-28.445263037141263,-28.199422851781538,-127.3385201989227,"(0.9761369319730094, 0.014347897839931829, -0.21637728806397497, 0.011475934644948423)",0.7219019965193162,depth,0,0,-0.794999999999998
20190731_213806,-0.4364071872783964,0.0254221682965214,0.01782341311554694,0.0,0.0,0.0,0.0,0.0,0.0,-31.022137021386396,-25.48305368974855,-128.747293326785,"(0.9761457492268012, 0.014337841424985764, -0.21633949322500212, 0.011451036672205072)",0.6962412801682465,depth,0,0,-0.8699999999999981
20190731_213806,-0.4365787624662241,0.02542114933153153,0.01760477578789243,0.0,0.0,0.0,0.0,0.0,0.0,-28.73158236872406,-26.08669128131144,-130.43782108021975,"(0.9761284207868985, 0.014314195141113817, -0.21642480976754958, 0.011345116421514978)",0.6591591810659627,depth,0,0,-0.9599999999999982
20190731_213807,-0.43676039698267316,0.025436137305040112,0.017410713595140372,0.0,0.0,0.0,0.0,0.0,0.0,-31.022137021386396,-26.69032887287433,-129.87431182907483,"(0.9761097309970425, 0.014301031827720787, -0.21651476621316154, 0.011252979747789054)",0.7118621961492606,depth,0,0,-1.034999999999998
20190731_213807,-0.43751728375174204,0.02538430604749172,0.017247892280183707,0.0,0.0,0.0,0.0,0.0,0.0,-29.304221031889643,-27.293966464437215,-128.18378407564006,"(0.9760289238072696, 0.014260252936661812, -0.216885624438023, 0.011171883902650427)",0.7085282873190661,depth,0,0,-1.0949999999999975
20190731_213807,-0.4384110322630115,0.025316384244448455,0.01714385619292817,0.0,0.0,0.0,0.0,0.0,0.0,-31.59477568455198,-26.08669128131144,-129.87431182907483,"(0.9759328737561797, 0.014218334108163973, -0.21732290554138872, 0.011118436231875218)",0.7049532222909621,depth,0,0,-1.169999999999997
20190731_213807,-0.43910419355836,0.02532879745697578,0.017016181831382673,0.0,0.0,0.0,0.0,0.0,0.0,-30.449498358220815,-26.08669128131144,-131.5648395825096,"(0.9758580416428535, 0.014212440693895281, -0.21766198697544972, 0.01106112636202105)",0.6713036323550508,depth,0,0,-1.2449999999999966
20190731_213807,-0.4396199893395013,0.025287207654048866,0.016879600072116547,0.0,0.0,0.0,0.0,0.0,0.0,-29.304221031889643,-26.69032887287433,-128.747293326785,"(0.9758028687219386, 0.01417869700798715, -0.21791486237645455, 0.010992665765949847)",0.6872071831097105,depth,0,0,-1.319999999999996
20190731_213807,-0.44012009753175796,0.025363199990051686,0.01670853826161021,0.0,0.0,0.0,0.0,0.0,0.0,-31.308456352969188,-25.78487248553,-131.28308495693713,"(0.9757486937158323, 0.014198482025153416, -0.21815966797183198, 0.010920123188341933)",0.6780617291562782,depth,0,0,-1.3949999999999956
20190731_213807,-0.44086419930312615,0.02537180693894789,0.016524857985919395,0.0,0.0,0.0,0.0,0.0,0.0,-30.163179026638023,-28.80306044334443,-129.02904795235744,"(0.9756683208747154, 0.014184613705023994, -0.2185239548631213, 0.010835383081966955)",0.7377803468916342,depth,0,0,-1.469999999999995
20190731_213807,-0.44166315479513435,0.025323785098082672,0.01630417978961909,0.0,0.0,0.0,0.0,0.0,0.0,-29.590540363472435,-26.99214766865577,-130.7195757057922,"(0.9755823957248603, 0.01413914561336323, -0.21891553514706788, 0.01072670426268753)",0.6779439160415388,depth,0,0,-1.4700000000000002
20190731_213807,-0.4422517869182731,0.0252978852199165,0.016123213044655957,0.0,0.0,0.0,0.0,0.0,0.0,-31.022137021386396,-29.708516830688765,-127.62027482449514,"(0.975519013491389, 0.014108202418732875, -0.2192040849252973, 0.010638707316324367)",0.7776357555909875,depth,0,0,-1.3950000000000007
20190731_213808,-0.4423946073835853,0.025290486764380803,0.015958455705767843,0.0,0.0,0.0,0.0,0.0,0.0,-32.45373367930035,-26.38851007709288,-129.02904795235744,"(0.9755042686530725, 0.01408689375621603, -0.21927495015999934, 0.01055829040447438)",0.723413711803618,depth,0,0,-1.3200000000000012
20190731_213808,-0.44312500914075764,0.025252682192088642,0.015814476420732106,0.0,0.0,0.0,0.0,0.0,0.0,-29.590540363472435,-24.57759730240422,-129.02904795235744,"(0.9754250759735227, 0.014054473479474085, -0.21963241866918679, 0.010487783692729047)",0.6364187586755886,depth,0,0,-1.2450000000000017
20190731_213808,-0.4434743892360594,0.025193255851966377,0.015636078061205944,0.0,0.0,0.0,0.0,0.0,0.0,-32.16741434771756,-26.08669128131144,-131.5648395825096,"(0.9753880078663719, 0.014006747859829053, -0.21980438188330526, 0.01039609685216761)",0.6886061582277818,depth,0,0,-1.1550000000000022
20190731_213808,-0.4437325422202659,0.025253519720024334,0.015447802153393721,0.0,0.0,0.0,0.0,0.0,0.0,-32.16741434771756,-26.69032887287433,-129.87431182907483,"(0.9753601559484232, 0.014016060157338727, -0.2199312923276566, 0.010312269440847842)",0.7145780075115744,depth,0,0,-1.0950000000000026
20190731_213808,-0.4440753764233334,0.02534003580368008,0.015249250404605133,0.0,0.0,0.0,0.0,0.0,0.0,-32.45373367930035,-26.99214766865577,-128.46553870121252,"(0.975322821842994, 0.014037215160470169, -0.22009943813201532, 0.010226784280959668)",0.7366624561899011,depth,0,0,-1.0200000000000031
20190731_213808,-0.44396797947212,0.025326935756852572,0.015074923504872216,0.0,0.0,0.0,0.0,0.0,0.0,-28.73158236872406,-25.48305368974855,-129.3108025779299,"(0.9753356290037118, 0.014011397030474689, -0.22004835127608427, 0.01013975590756595)",0.6393836115724263,depth,0,0,-0.9450000000000032
20190731_213808,-0.4439609527336937,0.02532254141672223,0.014931294339411373,0.0,0.0,0.0,0.0,0.0,0.0,-33.02637234246593,-25.78487248553,-130.7195757057922,"(0.9753371591759041, 0.013993435543427551, -0.22004595219120737, 0.010069191458807358)",0.7016506128627193,depth,0,0,-0.8700000000000031
20190731_213808,-0.4439626445721815,0.025373720635341643,0.014780291040246753,0.0,0.0,0.0,0.0,0.0,0.0,-27.87262437397568,-26.38851007709288,-130.1560664546473,"(0.9753373723589123, 0.014001783917698829, -0.22004757732882674, 0.010001191871402904)",0.6398781272791698,depth,0,0,-0.795000000000003
20190731_213808,-0.444757183789289,0.02493184968308431,0.014764831609930076,0.0,0.0,0.0,0.0,0.0,0.0,-29.01790170030685,-25.181234893967105,-130.1560664546473,"(0.9752529515268011, 0.013786365278509813, -0.22043736000324907, 0.00994922034474511)",0.6303143385110921,depth,0,0,-0.720000000000003
20190731_213809,-0.445517865862679,0.024687389208407993,0.014291300979249567,0.0,0.0,0.0,0.0,0.0,0.0,-30.449498358220815,-27.897604056000105,-127.62027482449514,"(0.9751729722248375, 0.013616581446280706, -0.22081273326661313, 0.0096953483290291)",0.7272425092583089,depth,0,0,-0.6450000000000029
20190731_213809,-0.44594920917568037,0.02500803403908881,0.013871587155043538,0.0,0.0,0.0,0.0,0.0,0.0,-28.15894370555847,-24.87941609818567,-127.62027482449514,"(0.975125114744232, 0.013727447009291323, -0.22102438178748862, 0.009528402233020483)",0.6275229506816296,depth,0,0,-0.5700000000000028
20190731_213809,-0.44641912108519205,0.025176986717500925,0.013623338833161195,0.0,0.0,0.0,0.0,0.0,0.0,-29.01790170030685,-26.38851007709288,-129.02904795235744,"(0.9750731317129052, 0.01378329377593512, -0.2212544027671135, 0.009428567252862336)",0.6600540562063839,depth,0,0,-0.48000000000000276
20190731_213809,-0.44696196623524287,0.02516545854343493,0.013458274874729219,0.0,0.0,0.0,0.0,0.0,0.0,-32.16741434771756,-25.48305368974855,-128.747293326785,"(0.9750138513764522, 0.013760437260245811, -0.22152025256859423, 0.009349742906111411)",0.6907417644283952,depth,0,0,-0.4050000000000027
20190731_213809,-0.44758681211030604,0.025188162387170913,0.013276460970677466,0.0,0.0,0.0,0.0,0.0,0.0,-28.15894370555847,-27.897604056000105,-131.00133033136467,"(0.9749452343755943, 0.013752517293810105, -0.22182601509506708, 0.009266998621130021)",0.6613153788440196,depth,0,0,-0.3300000000000026
20190731_213809,-0.44807228962916906,0.025279843474808664,0.013128372020183783,0.0,0.0,0.0,0.0,0.0,0.0,-30.449498358220815,-26.08669128131144,-129.3108025779299,"(0.9748913732653398, 0.013781656515496222, -0.22206327046787008, 0.00920761563175701)",0.6690820367795619,depth,0,0,-0.25500000000000256
20190731_213809,-0.4486705729680584,0.025281267844273314,0.012934460718908513,0.0,0.0,0.0,0.0,0.0,0.0,-29.304221031889643,-27.293966464437215,-128.747293326785,"(0.9748257315344423, 0.013761865907205266, -0.22235623096457602, 0.009116508998498718)",0.6798776279399074,depth,0,0,-0.1800000000000025
20190731_213809,-0.4492815566761548,0.025263170672209827,0.012716114758597342,0.0,0.0,0.0,0.0,0.0,0.0,-31.59477568455198,-26.08669128131144,-130.43782108021975,"(0.9747588234413802, 0.013729804196015157, -0.22265561577827034, 0.009011401795212797)",0.6750650530825428,depth,0,0,-0.10500000000000245
20190731_213809,-0.44988254250033494,0.025256910598157226,0.012530455802791942,0.0,0.0,0.0,0.0,0.0,0.0,-28.73158236872406,-26.69032887287433,-129.3108025779299,"(0.974692701483803, 0.013707073407096896, -0.22294982618642742, 0.008923497983437627)",0.6526361707958467,depth,0,0,-0.015000000000002456
20190731_213810,-0.4503336461018248,0.02530532373386631,0.012259785684242342,0.0,0.0,0.0,0.0,0.0,0.0,-28.15894370555847,-26.69032887287433,-126.49325632220531,"(0.9746432228613453, 0.01370120514006679, -0.2231713123330343, 0.008799457921437513)",0.6643818423830034,depth,0,0,0.05999999999999754
20190731_213810,-0.450997516161816,0.025309184598148217,0.01209940411937341,0.0,0.0,0.0,0.0,0.0,0.0,-30.449498358220815,-24.87941609818567,-133.25536733594436,"(0.9745697169801679, 0.013686208992618193, -0.22349591098772373, 0.008725376804083937)",0.6073940995053383,depth,0,0,0.13499999999999754
20190731_213810,-0.45171748431962866,0.02529281128192364,0.011958234885575077,0.0,0.0,0.0,0.0,0.0,0.0,-32.16741434771756,-24.87941609818567,-128.18378407564006,"(0.974489870764829, 0.013663534078998663, -0.22384777485389062, 0.00865871273233188)",0.6705705026831226,depth,0,0,0.20999999999999758
20190731_213810,-0.45260692922817874,0.025316879409809367,0.011833858422381414,0.0,0.0,0.0,0.0,0.0,0.0,-29.304221031889643,-26.08669128131144,-128.747293326785,"(0.9743905312684882, 0.013662642790601844, -0.22428189110604108, 0.00860570091205203)",0.6467615495572236,depth,0,0,0.26999999999999763
20190731_213810,-0.4529933896624725,0.02532361675668524,0.011635114722629274,0.0,0.0,0.0,0.0,0.0,0.0,-28.15894370555847,-26.69032887287433,-132.1283488336545,"(0.9743479514405736, 0.013644183993589614, -0.2244715030640662, 0.008511761208212204)",0.6185898204686482,depth,0,0,0.3449999999999977
20190731_213810,-0.4534587913761786,0.02531766014324528,0.011482962310569592,0.0,0.0,0.0,0.0,0.0,0.0,-29.304221031889643,-29.708516830688765,-129.87431182907483,"(0.9742963424460845, 0.01362484507073323, -0.22469929881995906, 0.0084395380678963)",0.7078177312962989,depth,0,0,0.41999999999999776
20190731_213810,-0.4538300817835693,0.02531588999758572,0.011297661295693255,0.0,0.0,0.0,0.0,0.0,0.0,-27.58630504239289,-27.293966464437215,-130.43782108021975,"(0.9742553749925021, 0.013603657489077473, -0.22488144327807844, 0.008351123894854342)",0.6331657079301098,depth,0,0,0.49499999999999783
20190731_213810,-0.45426439813704683,0.02527000304841181,0.011136356989116698,0.0,0.0,0.0,0.0,0.0,0.0,-31.88109501613477,-26.99214766865577,-131.28308495693713,"(0.974207468936006, 0.013563727955449197, -0.22509429875675416, 0.008269789625915692)",0.6804321284493847,depth,0,0,0.5699999999999978
20190731_213810,-0.45542752969002626,0.02517405651836902,0.011018093072015208,0.0,0.0,0.0,0.0,0.0,0.0,-27.58630504239289,-26.69032887287433,-128.747293326785,"(0.9740774540216676, 0.013505152429223186, -0.2256620405670128, 0.008207793349095265)",0.6302673799786565,depth,0,0,0.6449999999999979
20190731_213811,-0.4567755291776091,0.02505859247919762,0.00947119214578538,0.0,0.0,0.0,0.0,0.0,0.0,-30.163179026638023,-27.595785260218662,-131.28308495693713,"(0.9739318763665787, 0.01327557395358621, -0.22632934791621756, 0.007448866027659058)",0.6629197761245821,depth,0,0,0.719999999999998
20190731_213811,-0.45915595446884944,0.025015394578152467,0.005960379546808327,0.0,0.0,0.0,0.0,0.0,0.0,-29.304221031889643,-26.08669128131144,-125.36623781991548,"(0.9736735457850085, 0.012857292766882317, -0.22751148675918026, 0.005748013029139452)",0.6599582749552381,depth,0,0,0.794999999999998
20190731_213811,-0.4606513823034684,0.024925582304936973,0.0030172762747545483,0.0,0.0,0.0,0.0,0.0,0.0,-29.590540363472435,-25.181234893967105,-127.3385201989227,"(0.973511084251219, 0.01247773411765292, -0.22825833208215093, 0.004313794893068768)",0.6270451287425106,depth,0,0,0.8849999999999981
20190731_213811,-0.46199223513166254,0.025092162048767446,0.01864293193512469,0.0,0.0,0.0,0.0,0.0,0.0,-29.876859695055224,-27.897604056000105,-128.18378407564006,"(0.973293147826806, 0.014345916917135017, -0.22880549538977102, 0.011945222502542499)",0.6772165490948088,depth,0,0,0.9599999999999982
20190731_213811,-0.46245794088081016,0.02491444421679342,0.025793998595596487,0.0,0.0,0.0,0.0,0.0,0.0,-29.304221031889643,-26.69032887287433,-127.62027482449514,"(0.9731921942220678, 0.01507970224671355, -0.22898074233500662, 0.015406989488444428)",0.6488455882038344,depth,0,0,1.034999999999998
20190731_213811,-0.4623420830559417,0.024898090600740753,0.025687311043111293,0.0,0.0,0.0,0.0,0.0,0.0,-28.445263037141263,-25.78487248553,-127.90202945006762,"(0.973206418932831, 0.01505897100140755, -0.22892529131595193, 0.015352671957045235)",0.6168237315203353,depth,0,0,1.1099999999999974
20190731_213811,-0.46255511247013714,0.02487250803955037,0.02558238028094029,0.0,0.0,0.0,0.0,0.0,0.0,-30.163179026638023,-26.99214766865577,-127.3385201989227,"(0.973182992947136, 0.015035534276591931, -0.2290299441518204, 0.015299661084026202)",0.6692017251468548,depth,0,0,1.184999999999997
20190731_213811,-0.4632301166219628,0.024896444003353266,0.0253992937424351,0.0,0.0,0.0,0.0,0.0,0.0,-28.73158236872406,-26.69032887287433,-127.05676557335023,"(0.9731067519138, 0.015029422935179339, -0.2293596006373719, 0.015216419469600739)",0.6436410418037966,depth,0,0,1.2599999999999965
20190731_213811,-0.4650253063304053,0.024859844201298456,0.025266002545165915,0.0,0.0,0.0,0.0,0.0,0.0,-32.16741434771756,-27.293966464437215,-125.92974707106038,"(0.9729014989803116, 0.015004797825520902, -0.23023430796717165, 0.015155618065767533)",0.71167535989594,depth,0,0,1.3499999999999959
20190731_213812,-0.47064194441319246,0.024706949834813238,0.027420234029064666,0.0,0.0,0.0,0.0,0.0,0.0,-30.163179026638023,-28.199422851781538,-129.02904795235744,"(0.9722344831635729, 0.015207813111293846, -0.23295073195745702, 0.01621075718519991)",0.6644255067894965,depth,0,0,1.4249999999999954
20190731_213812,-0.47685604264143355,0.02443116203330719,0.02732547699958059,0.0,0.0,0.0,0.0,0.0,0.0,-32.740053010883145,-27.897604056000105,-127.62027482449514,"(0.9715078377087779, 0.015095066274711865, -0.23597358067065513, 0.016159500921957413)",0.6937820723324751,depth,0,0,1.499999999999995
20190731_213812,-0.47877392036334476,0.024363458471146956,0.027210838900828496,0.0,0.0,0.0,0.0,0.0,0.0,-30.735817689803604,-27.595785260218662,-127.90202945006762,"(0.9712822312493034, 0.01505856401641382, -0.23690657494825978, 0.016104088158695788)",0.6538411008918614,depth,0,0,1.4400000000000004
20190731_213812,-0.47884370314107055,0.024328291885739154,0.02713108416306776,0.0,0.0,0.0,0.0,0.0,0.0,-31.022137021386396,-25.48305368974855,-127.62027482449514,"(0.9712748593210301, 0.015032397583886734, -0.23694134970461728, 0.016061490402437352)",0.6169844243990396,depth,0,0,1.3650000000000009
20190731_213812,-0.47914711588606035,0.024264210455770017,0.027081350068578532,0.0,0.0,0.0,0.0,0.0,0.0,-31.59477568455198,-27.293966464437215,-125.36623781991548,"(0.9712397341407095, 0.014996944005099698, -0.23708959498013343, 0.016031046408399)",0.6789040921095373,depth,0,0,1.2900000000000014
20190731_213812,-0.4790230520658172,0.024327354251228235,0.026950177568130892,0.0,0.0,0.0,0.0,0.0,0.0,-31.88109501613477,-26.99214766865577,-126.77501094777776,"(0.9712550350274187, 0.015011425128335101, -0.23702982065323608, 0.01597429718637702)",0.6658713712638307,depth,0,0,1.200000000000002
20190731_213812,-0.47868170267996635,0.024314390437089335,0.026828126710671536,0.0,0.0,0.0,0.0,0.0,0.0,-31.88109501613477,-28.80306044334443,-125.64799244548793,"(0.97129660033935, 0.014988932762786086, -0.23686505395131488, 0.015912016858166178)",0.7110588280558652,depth,0,0,1.1250000000000024
20190731_213812,-0.47892129928968374,0.024242036181557455,0.026766650718693802,0.0,0.0,0.0,0.0,0.0,0.0,-31.88109501613477,-26.38851007709288,-125.08448319434301,"(0.9712692094585471, 0.01494772638493586, -0.23698245630824336, 0.015874622382962295)",0.6674646938460858,depth,0,0,1.050000000000003
20190731_213812,-0.4791902680724913,0.024198797029751605,0.02662831683787047,0.0,0.0,0.0,0.0,0.0,0.0,-31.88109501613477,-30.010335626470212,-123.95746469205316,"(0.9712387062165323, 0.014911689794872195, -0.2371144601966854, 0.015803474932186767)",0.746659731895962,depth,0,0,0.9750000000000032
20190731_213813,-0.4821623393558363,0.024089508816879955,0.02642912736512318,0.0,0.0,0.0,0.0,0.0,0.0,-32.740053010883145,-26.69032887287433,-125.92974707106038,"(0.9708871916366013, 0.014849812710108554, -0.23855995085613743, 0.015706496298842753)",0.673009118806735,depth,0,0,0.8850000000000031
20190731_213813,-0.48651665946732814,0.023961961458812818,0.025943611253377206,0.0,0.0,0.0,0.0,0.0,0.0,-32.45373367930035,-26.38851007709288,-126.21150169663287,"(0.9703695663543039, 0.014751142824065748, -0.24067791647518116, 0.01547413971470179)",0.6519459505448886,depth,0,0,0.810000000000003
20190731_213813,-0.4838399830905449,0.02420128833727289,0.03550947722992519,0.0,0.0,0.0,0.0,0.0,0.0,-31.88109501613477,-28.80306044334443,-126.21150169663287,"(0.9706042418821637, 0.015999049880542248, -0.23930328154467378, 0.02013393864152857)",0.696202878676607,depth,0,0,0.735000000000003
20190731_213813,-0.48088382757110276,0.024154840575221027,0.046787661526529266,0.0,0.0,0.0,0.0,0.0,0.0,-32.740053010883145,-28.501241647562985,-123.1122008153358,"(0.9708289970594485, 0.01729639433481473, -0.2377749523363957, 0.0255922889360194)",0.7351516468787497,depth,0,0,0.6750000000000029
20190731_213813,-0.47580264598198385,0.024374281742724522,0.05093239169110942,0.0,0.0,0.0,0.0,0.0,0.0,-28.445263037141263,-30.010335626470212,-124.5209739431981,"(0.9713743047464202, 0.017840113503907514, -0.23526809288684378, 0.02761548293917697)",0.6991764153541811,depth,0,0,0.6150000000000029
20190731_213813,-0.46994469975957537,0.02462807515058006,0.051050085072817976,0.0,0.0,0.0,0.0,0.0,0.0,-29.590540363472435,-28.199422851781538,-127.3385201989227,"(0.9720571066341706, 0.01791299879052431, -0.23241697245328763, 0.027684956781312244)",0.6707274566136638,depth,0,0,0.5400000000000028
20190731_213813,-0.46611172916374427,0.02476424283325124,0.05092447612618612,0.0,0.0,0.0,0.0,0.0,0.0,-31.59477568455198,-30.915792013814535,-127.62027482449514,"(0.97250243453745, 0.017922624944004557, -0.23055257459860562, 0.027627969158154075)",0.7555041601374708,depth,0,0,0.46500000000000274
20190731_213813,-0.4636557804093825,0.024780727297681153,0.05074502469148895,0.0,0.0,0.0,0.0,0.0,0.0,-27.87262437397568,-30.010335626470212,-126.21150169663287,"(0.9727878941397061, 0.01788314431595323, -0.2293593920369175, 0.027534985910046748)",0.7011756091866018,depth,0,0,0.37500000000000266
20190731_213813,-0.46285070009427104,0.024866607480978107,0.05059810398314998,0.0,0.0,0.0,0.0,0.0,0.0,-28.15894370555847,-29.104879239125875,-126.49325632220531,"(0.9728816402013145, 0.017899305557739206, -0.2289678621787017, 0.027470841069498465)",0.6877238290452052,depth,0,0,0.3000000000000026
20190731_213813,-0.46314279597997215,0.02484177668056285,0.050435525709014405,0.0,0.0,0.0,0.0,0.0,0.0,-30.163179026638023,-30.61397321803309,-127.3385201989227,"(0.972850552024441, 0.017871782187242252, -0.22911176276345444, 0.027389833709146872)",0.7371407181903339,depth,0,0,0.22500000000000253
20190731_213814,-0.4633792562179594,0.02481279958071688,0.05019512414272383,0.0,0.0,0.0,0.0,0.0,0.0,-28.445263037141263,-28.80306044334443,-125.08448319434301,"(0.9728269290481031, 0.017832698304448842, -0.2292293403807727, 0.027270322671640156)",0.6957437171167906,depth,0,0,0.15000000000000246
20190731_213814,-0.46359881928932345,0.024802582518051817,0.049951517268217636,0.0,0.0,0.0,0.0,0.0,0.0,-27.58630504239289,-30.312154422251645,-125.92974707106038,"(0.9728050969495757, 0.017802163030552605, -0.22933846250735487, 0.027151352730995296)",0.7048013601368537,depth,0,0,0.07500000000000245
20190731_213814,-0.4636582694305285,0.024788079496493826,0.04977033229252985,0.0,0.0,0.0,0.0,0.0,0.0,-30.163179026638023,-28.80306044334443,-125.64799244548793,"(0.9728008461537209, 0.017774967475667793, -0.22936919143921108, 0.027061749248086287)",0.7160098924072248,depth,0,0,2.456368441983159e-15
20190731_213814,-0.4637436959159126,0.024741761136928463,0.04959068166578508,0.0,0.0,0.0,0.0,0.0,0.0,-26.441027716061722,-29.708516830688765,-124.23921931762563,"(0.9727938603912505, 0.017732744105712028, -0.22941296920894186, 0.02696932572955367)",0.6903829674472474,depth,0,0,-0.07499999999999754
20190731_213814,-0.4608310831864668,0.024914529883439784,0.04940096026635265,0.0,0.0,0.0,0.0,0.0,0.0,-28.445263037141263,-32.42488599272175,-126.77501094777776,"(0.9731288158275968, 0.017764162267007208, -0.22799519163391826, 0.026887449428007488)",0.7526298354317897,depth,0,0,-0.16499999999999754
20190731_213814,-0.460048972962435,0.024955712289397577,0.049199817423479134,0.0,0.0,0.0,0.0,0.0,0.0,-29.01790170030685,-28.80306044334443,-126.21150169663287,"(0.9732204679509493, 0.0177530189876166, -0.22761580521467056, 0.026791720636009327)",0.7017654376455038,depth,0,0,-0.2399999999999976
20190731_213814,-0.45903392938101045,0.024855594996377416,0.04904338108477667,0.0,0.0,0.0,0.0,0.0,0.0,-29.590540363472435,-30.010335626470212,-127.3385201989227,"(0.9733391443226439, 0.017675817016094924, -0.22712449826825526, 0.026700897147288186)",0.7263748367820255,depth,0,0,-0.31499999999999767
20190731_213814,-0.45821165856205937,0.024886847240696827,0.04879442538828031,0.0,0.0,0.0,0.0,0.0,0.0,-29.876859695055224,-29.104879239125875,-125.36623781991548,"(0.9734357250138458, 0.017654150723112633, -0.22672602998287955, 0.026580586096179644)",0.7310794255570839,depth,0,0,-0.38999999999999774
20190731_213814,-0.45763958847666236,0.024980171907372055,0.048464941045239116,0.0,0.0,0.0,0.0,0.0,0.0,-25.86838905289614,-31.51942960537743,-127.05676557335023,"(0.9735042484934252, 0.017656283460692392, -0.2264492158819563, 0.026428894151180708)",0.7056046225167922,depth,0,0,-0.4649999999999978
20190731_213815,-0.4571198325550587,0.024943408305435587,0.0482038826061355,0.0,0.0,0.0,0.0,0.0,0.0,-26.441027716061722,-26.69032887287433,-126.49325632220531,"(0.9735669829434144, 0.017603465356805657, -0.2261989656947965, 0.02629592456053957)",0.6283544629425896,depth,0,0,-0.5399999999999978
20190731_213815,-0.4572199970851847,0.025040176908902038,0.028802540281906486,0.0,0.0,0.0,0.0,0.0,0.0,-26.154708384478933,-28.80306044334443,-127.3385201989227,"(0.9737641576123022, 0.015456065531708675, -0.22640704264832137, 0.016861981708096038)",0.6592059422901003,depth,0,0,-0.6299999999999979
20190731_213815,-0.45612631075341603,0.025227751967306627,0.01921071434307089,0.0,0.0,0.0,0.0,0.0,0.0,-29.01790170030685,-26.38851007709288,-127.90202945006762,"(0.9739563063125307, 0.014457842332842063, -0.22594482261876417, 0.012207428922828707)",0.6483554630585852,depth,0,0,-0.704999999999998
20190731_213815,-0.4559940854279858,0.02518213489524531,0.019044322173697788,0.0,0.0,0.0,0.0,0.0,0.0,-32.740053010883145,-29.708516830688765,-128.747293326785,"(0.9739725988572568, 0.014416404997352767, -0.22588190618804946, 0.012120577504669753)",0.7640609504049766,depth,0,0,-0.779999999999998
20190731_213815,-0.45622225795938204,0.025178544690492022,0.018813255536715607,0.0,0.0,0.0,0.0,0.0,0.0,-27.013666379227306,-27.293966464437215,-125.92974707106038,"(0.973948215643721, 0.014389280223571558, -0.22599471350651937, 0.012008802028757015)",0.6531673770703235,depth,0,0,-0.8549999999999981
20190731_213815,-0.4564615872117828,0.025179323572699707,0.01860189580744891,0.0,0.0,0.0,0.0,0.0,0.0,-27.013666379227306,-29.104879239125875,-128.747293326785,"(0.9739223956743255, 0.014366519645178901, -0.22611278028354065, 0.0119071789150289)",0.6674450715384491,depth,0,0,-0.9299999999999982
20190731_213815,-0.4563913435635496,0.025226331689410908,0.01834987477325022,0.0,0.0,0.0,0.0,0.0,0.0,-27.87262437397568,-26.38851007709288,-129.59255720350237,"(0.9739314999651939, 0.014360704462321688, -0.2260801038257069, 0.011789410377580373)",0.6200674212434053,depth,0,0,-1.0049999999999981
20190731_213815,-0.4564597693026257,0.025249605693162577,0.018078677475466907,0.0,0.0,0.0,0.0,0.0,0.0,-28.15894370555847,-28.501241647562985,-129.3108025779299,"(0.9739251797277211, 0.014341585337023642, -0.2261152360416135, 0.011660328134006486)",0.6673020848818483,depth,0,0,-1.0799999999999976
20190731_213815,-0.45652758799864684,0.025169071258408823,0.017912577655467263,0.0,0.0,0.0,0.0,0.0,0.0,-29.304221031889643,-26.08669128131144,-125.36623781991548,"(0.9739190452264682, 0.014283788377478884, -0.2261499192373448, 0.011570685532606382)",0.6835782745599635,depth,0,0,-1.169999999999997
20190731_213816,-0.4567618676006561,0.02523025338650354,0.01775409806487222,0.0,0.0,0.0,0.0,0.0,0.0,-26.727347047644514,-29.406698034907322,-127.90202945006762,"(0.9738929986798519, 0.014296339821833587, -0.22626478779098194, 0.011501634491087107)",0.6744586129847101,depth,0,0,-1.2449999999999966
20190731_213816,-0.45664287825671435,0.025235714864545258,0.017405463982296407,0.0,0.0,0.0,0.0,0.0,0.0,-29.304221031889643,-25.48305368974855,-127.62027482449514,"(0.9739084225770334, 0.014259222895818225, -0.22620930058464572, 0.011331872083970865)",0.634493845607917,depth,0,0,-1.319999999999996
20190731_213816,-0.45647985725074325,0.02512788444153602,-0.0003928253172812686,0.0,0.0,0.0,0.0,0.0,0.0,-28.445263037141263,-28.199422851781538,-127.3385201989227,"(0.9739898044804393, 0.01219335104360998, -0.22624799033521428, 0.0026513822356959067)",0.6802019288527291,depth,0,0,-1.3949999999999956
20190731_213816,-0.45712277385768374,0.025377356337484617,-0.009045787690528596,0.0,0.0,0.0,0.0,0.0,0.0,-29.876859695055224,-22.464865731934115,-130.43782108021975,"(0.973917993397143, 0.011333534501159268, -0.22661189749165814, -0.0015300484383773446)",0.5533861170338086,depth,0,0,-1.469999999999995
20190731_213816,-0.4566291814426771,0.025329752394090913,-0.010894445283228648,0.0,0.0,0.0,0.0,0.0,0.0,-32.45373367930035,-23.973959710841335,-132.41010345922697,"(0.9739722942567145, 0.011102901769123714, -0.22638186062161997, -0.00243901088777992)",0.6098247469161819,depth,0,0,-1.4700000000000002
