time,roll,pitch,yaw,accel_x,accel_y,accel_z,gyro_x,gyro_y,gyro_z,mag_x,mag_y,mag_z,quat,head,depth,distance,switch,duty
20190731_211425,-0.003610124622051171,0.015310868385070392,-0.00015084239043087157,0.0,0.0,0.0,0.0,0.0,0.0,-119.2084911488863,36.69161824122883,-71.26934971000315,"(0.9999690664280871, 0.007655210788241957, -0.0018055858079254153, -6.160046901435667e-05)",-2.8340746876549896,depth,0,0,0
20190731_211425,-0.012789815364233783,0.015433140638350698,-0.0004172512097400826,0.0,0.0,0.0,0.0,0.0,0.0,-116.34529783305835,35.48434305810306,-73.52338671458284,"(0.9999497692089077, 0.0077150016958327195, -0.006396283390219388, -0.00015926919864160164)",-2.8343602519191684,depth,0,0,0
20190731_211425,-0.02202831882732274,0.015458060316704419,-0.0006594911490358155,0.0,0.0,0.0,0.0,0.0,0.0,-115.48633983830999,34.57888667075873,-71.55110433557562,"(0.9999094514750263, 0.007724852295867835, -0.01101615558552119, -0.0002445895223127558)",-2.8379976661838056,depth,0,0,0
20190731_211425,-0.030361934114155067,0.015593123224219177,-0.0008624990305132122,0.0,0.0,0.0,0.0,0.0,0.0,-119.49481048046907,36.389799445447395,-72.11461358672054,"(0.999854339867636, 0.007789037187648258, -0.01518328301076506, -0.0003128331153488647)",-2.8320130622189565,depth,0,0,0
20190731_211425,-0.03787196151566031,0.015808133750765955,-0.0011381835751654546,0.0,0.0,0.0,0.0,0.0,0.0,-118.6358524857207,36.69161824122883,-71.83285896114808,"(0.9997894115718112, 0.007891790936924773, -0.01893875188061743, -0.0004193112251787479)",-2.8260324781322845,depth,0,0,0
20190731_211425,-0.04726405270686855,0.015900498043223,-0.0012910229724513063,0.0,0.0,0.0,0.0,0.0,0.0,-117.77689449097232,38.804349811698934,-70.42408583328577,"(0.9996890954101496, 0.00793269090161266, -0.023634205566551717, -0.00045744981605595655)",-2.8057166410772836,depth,0,0,0
20190731_211425,-0.05447209894997317,0.016161664290771625,-0.0015783457659399737,0.0,0.0,0.0,0.0,0.0,0.0,-116.63161716464116,39.40798740326183,-70.9875950844307,"(0.999596346488935, 0.00805625412119833, -0.027238159423778673, -0.00056879408622721)",-2.7960081922946363,depth,0,0,0
20190731_211426,-0.06223674425832304,0.016290616206443072,-0.0018045850724154144,0.0,0.0,0.0,0.0,0.0,0.0,-116.34529783305835,37.295255832791725,-70.70584045885823,"(0.9994825275576458, 0.00811319890755472, -0.031119651137816732, -0.000648400745800078)",-2.8103018257613317,depth,0,0,0
20190731_211426,-0.07032666357442212,0.016419061809282848,-0.0020681196248313865,0.0,0.0,0.0,0.0,0.0,0.0,-116.91793649622393,37.89889342435461,-71.26934971000315,"(0.999347920719402, 0.008168007241089702, -0.03516336620970322, -0.000744774005754541)",-2.805069056951153,depth,0,0,0
20190731_211426,-0.07794159003104822,0.016528610504324002,-0.0022992571143682456,0.0,0.0,0.0,0.0,0.0,0.0,-118.9221718173035,37.59707462857317,-71.55110433557562,"(0.9992063212803692, 0.008213141932807288, -0.03896906878668129, -0.0008267350494583533)",-2.811150786888172,depth,0,0,0
20190731_211426,-0.08554030703499456,0.01657990510360375,-0.0025827566891198496,0.0,0.0,0.0,0.0,0.0,0.0,-116.34529783305835,36.087980649665944,-74.65040521687267,"(0.9990507910596963, 0.008227055889749013, -0.04276630560447641, -0.0009357025843882668)",-2.813374273734804,depth,0,0,0
20190731_211426,-0.09348238347826829,0.016677654001670546,-0.0027975592813133648,0.0,0.0,0.0,0.0,0.0,0.0,-119.2084911488863,37.89889342435461,-73.52338671458284,"(0.9988726673205292, 0.008264260364651872, -0.04673415514493341, -0.0010075829920827709)",-2.805235723552542,depth,0,0,0
20190731_211426,-0.1003906472866323,0.016797404493856055,-0.0030579020054278157,0.0,0.0,0.0,0.0,0.0,0.0,-117.49057515938954,33.06979269185151,-71.26934971000315,"(0.9987047317172155, 0.008311304258124104, -0.05018524449634488, -0.001105577684187808)",-2.8391585862310573,depth,0,0,0
20190731_211426,-0.10759872838810991,0.01697484442283908,-0.0032775806577229434,0.0,0.0,0.0,0.0,0.0,0.0,-117.77689449097232,33.371611487632954,-70.42408583328577,"(0.998516604496038, 0.008386909024165706, -0.05378529518584126, -0.0011799680060348948)",-2.8361012112135096,depth,0,0,0
20190731_211426,-0.11443286478722171,0.01711048536099276,-0.0035009729925662824,0.0,0.0,0.0,0.0,0.0,0.0,-116.05897850147558,36.993437037010274,-68.73355807985102,"(0.9983263773033372, 0.008441027248456396, -0.057197989859282004, -0.0012583304188531587)",-2.800531466269033,depth,0,0,0
20190731_211426,-0.12121754077331737,0.017296244858471692,-0.0037466942225739034,0.0,0.0,0.0,0.0,0.0,0.0,-120.35376847521745,36.69161824122883,-69.01531270542347,"(0.9981257544216131, 0.008518652983577294, -0.060585469889861375, -0.00134601257632693)",-2.813284513881229,depth,0,0,0
20190731_211427,-0.1279569205585556,0.01742008293689377,-0.0039308613253388885,0.0,0.0,0.0,0.0,0.0,0.0,-118.3495331541379,35.182524262321614,-68.17004882870609,"(0.997915388810985, 0.00856644008132425, -0.06394935770507398, -0.0014044670385213339)",-2.81892801171069,depth,0,0,0
20190731_211427,-0.13452087374856683,0.017609914759568777,-0.0041786546056721005,0.0,0.0,0.0,0.0,0.0,0.0,-118.9221718173035,33.97524907919585,-67.60653957756118,"(0.9976992524897481, 0.008644497946672079, -0.06722533697653016, -0.0014927508297942773)",-2.8291879999740814,depth,0,0,0
20190731_211427,-0.14088718418112128,0.017698162303256056,-0.004343826044035964,0.0,0.0,0.0,0.0,0.0,0.0,-115.48633983830999,35.78616185388451,-71.55110433557562,"(0.997479820342662, 0.008674133566555676, -0.07040159588556691, -0.0015436038370547198)",-2.800555150051254,depth,0,0,0
20190731_211427,-0.14727934173347937,0.017782087165962315,-0.004543764479556821,0.0,0.0,0.0,0.0,0.0,0.0,-119.49481048046907,36.993437037010274,-72.11461358672054,"(0.9972493190354554, 0.008699664844469338, -0.07359017989181751, -0.0016115019094972806)",-2.8002195704764032,depth,0,0,0
20190731_211427,-0.15344429814335214,0.017913242401513985,-0.004745841696965047,0.0,0.0,0.0,0.0,0.0,0.0,-116.63161716464116,35.182524262321614,-68.17004882870609,"(0.997017129049009, 0.008748259392944751, -0.07666480352847316, -0.001679357140792508)",-2.8077307177783077,depth,0,0,0
20190731_211427,-0.15943589064699817,0.01806015504351978,-0.00492618038458537,0.0,0.0,0.0,0.0,0.0,0.0,-117.20425582780673,34.57888667075873,-69.86057658214085,"(0.9967823130987505, 0.008805113836326811, -0.0796522208674794, -0.001736080272359886)",-2.811908189078772,depth,0,0,0
20190731_211427,-0.1654480138236322,0.018135142940815863,-0.005163721499168524,0.0,0.0,0.0,0.0,0.0,0.0,-116.34529783305835,37.295255832791725,-69.5788219565684,"(0.9965379635594165, 0.008823079985701449, -0.08264934734744556, -0.001823685131417475)",-2.784757211923454,depth,0,0,0
20190731_211427,-0.17123514853552557,0.01830010183613128,-0.0054157895847136645,0.0,0.0,0.0,0.0,0.0,0.0,-116.91793649622393,37.89889342435461,-70.70584045885823,"(0.9962938117766283, 0.008884823878572727, -0.08553380423596363, -0.0019154250616369491)",-2.778953276285573,depth,0,0,0
20190731_211427,-0.17694516186190054,0.018409565437495553,-0.005652672457144971,0.0,0.0,0.0,0.0,0.0,0.0,-122.35800379629698,37.59707462857317,-71.55110433557562,"(0.996044975716097, 0.008918899103205747, -0.08837902537759851, -0.0020018648337695503)",-2.795740289463264,depth,0,0,0
20190731_211428,-0.18258218901601236,0.018555907227873713,-0.005869175349818722,0.0,0.0,0.0,0.0,0.0,0.0,-118.06321382255513,34.277067874977284,-70.70584045885823,"(0.9957911948801631, 0.008971628732255724, -0.09118713996569004, -0.002076434902679346)",-2.810098067215968,depth,0,0,0
20190731_211428,-0.18799581247494176,0.01869848719738031,-0.006058051506521982,0.0,0.0,0.0,0.0,0.0,0.0,-115.48633983830999,36.993437037010274,-68.17004882870609,"(0.9955400286891725, 0.009023502462898228, -0.09388320700370915, -0.0021380186066326337)",-2.7789540752121042,depth,0,0,0
20190731_211428,-0.19336033561725138,0.018795420375372823,-0.006281661648031763,0.0,0.0,0.0,0.0,0.0,0.0,-119.49481048046907,36.389799445447395,-69.86057658214085,"(0.9952840998391845, 0.009050470774819392, -0.09655426533582714, -0.0022188806901349543)",-2.7937872007245046,depth,0,0,0
20190731_211428,-0.1984146398464225,0.018981427645686434,-0.006561579296077841,0.0,0.0,0.0,0.0,0.0,0.0,-118.3495331541379,37.59707462857317,-71.55110433557562,"(0.9950359024107601, 0.009118925778351035, -0.09907065516346002, -0.002324519678515208)",-2.777051526337501,depth,0,0,0
20190731_211428,-0.2035224689478864,0.019108447858847237,-0.006810142718569667,0.0,0.0,0.0,0.0,0.0,0.0,-118.9221718173035,36.993437037010274,-69.86057658214085,"(0.9947789247663255, 0.009158708147912774, -0.10161283511083812, -0.0024167429636679514)",-2.7837915660697963,depth,0,0,0
20190731_211428,-0.20866407352851674,0.019239088535960253,-0.006998992641057617,0.0,0.0,0.0,0.0,0.0,0.0,-121.49904580154862,37.295255832791725,-70.70584045885823,"(0.9945137484522385, 0.009202600450364123, -0.10417088486448728, -0.0024785138649365593)",-2.7869393477907387,depth,0,0,0
20190731_211428,-0.2136715935931643,0.019417175291386368,-0.007230052205361586,0.0,0.0,0.0,0.0,0.0,0.0,-117.49057515938954,38.5025310159175,-69.01531270542347,"(0.9942488688916945, 0.009267558334972855, -0.10666185141731598, -0.0025590080743748576)",-2.7636908910658984,depth,0,0,0
20190731_211428,-0.21828825858919848,0.019532473147486365,-0.007394213593669818,0.0,0.0,0.0,0.0,0.0,0.0,-120.06744914363465,40.01162499482472,-70.42408583328577,"(0.9939994240451044, 0.009305207055554016, -0.1089575150602945, -0.002611136063026067)",-2.7566739485118017,depth,0,0,0
20190731_211428,-0.22329229967834835,0.019713487721956885,-0.007548105425449131,0.0,0.0,0.0,0.0,0.0,0.0,-118.6358524857207,36.087980649665944,-69.01531270542347,"(0.9937228324019927, 0.00937468558210532, -0.1114451139761915, -0.002652207388513857)",-2.7851923619995933,depth,0,0,0
20190731_211429,-0.22778193593023757,0.01984571014626083,-0.007789707043830241,0.0,0.0,0.0,0.0,0.0,0.0,-118.9221718173035,38.200712220136054,-69.86057658214085,"(0.9934693756033957, 0.009415725241204154, -0.11367685155654202, -0.002741765229476674)",-2.7655662604028373,depth,0,0,0
20190731_211429,-0.23227079323784577,0.019957307043985118,-0.007971032188804373,0.0,0.0,0.0,0.0,0.0,0.0,-118.3495331541379,35.182524262321614,-69.86057658214085,"(0.9932111300366813, 0.009449397208287283, -0.11590732347961502, -0.0028022183089128983)",-2.7885848253293357,depth,0,0,0
20190731_211429,-0.23673656187713626,0.020064276275690886,-0.008203217963280116,0.0,0.0,0.0,0.0,0.0,0.0,-117.77689449097232,36.993437037010274,-69.29706733099593,"(0.9929491882581936, 0.009477347131451904, -0.11812598718818015, -0.0028880061569261646)",-2.7697921952475055,depth,0,0,0
20190731_211429,-0.24111368804063144,0.02016311972136489,-0.008381048381196684,0.0,0.0,0.0,0.0,0.0,0.0,-115.77265916989279,36.087980649665944,-71.26934971000315,"(0.9926877359393682, 0.00950418225752101, -0.12029980021445696, -0.002947457132649633)",-2.767556803395975,depth,0,0,0
20190731_211429,-0.24534844627954058,0.020211363101472694,-0.0085480219876842,0.0,0.0,0.0,0.0,0.0,0.0,-119.2084911488863,34.88070546654017,-69.01531270542347,"(0.9924304914956779, 0.009506505906286987, -0.12240226836215522, -0.00300509482377305)",-2.7905916555238894,depth,0,0,0
20190731_211429,-0.24944250291826214,0.0202416026890115,-0.008701159466557641,0.0,0.0,0.0,0.0,0.0,0.0,-118.9221718173035,33.371611487632954,-71.55110433557562,"(0.992177652069474, 0.00950074568270555, -0.12443429509464955, -0.0030575757842364955)",-2.7994509671301593,depth,0,0,0
20190731_211429,-0.25359228057319483,0.020351318054673304,-0.008883447104603318,0.0,0.0,0.0,0.0,0.0,0.0,-116.05897850147558,34.57888667075873,-68.73355807985102,"(0.9919167082701329, 0.009532041844072676, -0.12649369700647073, -0.003119078463617234)",-2.7806222683600836,depth,0,0,0
20190731_211429,-0.2576880803033455,0.02049879485381829,-0.009133403239609749,0.0,0.0,0.0,0.0,0.0,0.0,-118.3495331541379,35.182524262321614,-69.29706733099593,"(0.9916546672989804, 0.009577424258641744, -0.1285261790286566, -0.0032117087371187373)",-2.7807255327380687,depth,0,0,0
20190731_211429,-0.26083040763160426,0.020644078135550786,-0.009328902599235233,0.0,0.0,0.0,0.0,0.0,0.0,-118.3495331541379,36.993437037010274,-72.11461358672054,"(0.9914506398274943, 0.009627533139952389, -0.1300852260768017, -0.003282277843040533)",-2.760241259327035,depth,0,0,0
20190731_211430,-0.2649323985385388,0.020744922393424518,-0.009482132180437003,0.0,0.0,0.0,0.0,0.0,0.0,-117.49057515938954,34.88070546654017,-69.01531270542347,"(0.9911812080659932, 0.009655130089096547, -0.1321192904392277, -0.003329314289172629)",-2.778356869607239,depth,0,0,0
20190731_211430,-0.26922594456798354,0.020779013244091194,-0.009666442273024368,0.0,0.0,0.0,0.0,0.0,0.0,-119.2084911488863,36.087980649665944,-70.14233120771331,"(0.9908950303000508, 0.009646597311341952, -0.1342477434270652, -0.003394918513811484)",-2.7704762055748837,depth,0,0,0
20190731_211430,-0.2732173469508261,0.020821109055473398,-0.00984249991850934,0.0,0.0,0.0,0.0,0.0,0.0,-115.77265916989279,36.087980649665944,-69.01531270542347,"(0.9906248339136449, 0.009643096468327022, -0.13622589863052528, -0.003457407464031771)",-2.7583847834404946,depth,0,0,0
20190731_211430,-0.27604247621183864,0.020925021209349613,-0.010029105256207819,0.0,0.0,0.0,0.0,0.0,0.0,-116.91793649622393,34.277067874977284,-70.14233120771331,"(0.9904307344902759, 0.009672815905989488, -0.13762614588834732, -0.003527148624745631)",-2.7767744179199223,depth,0,0,0
20190731_211430,-0.27952377863770345,0.021024388260567153,-0.010221214574392684,0.0,0.0,0.0,0.0,0.0,0.0,-116.91793649622393,37.295255832791725,-70.14233120771331,"(0.9901890338615903, 0.009697461494592127, -0.13935101209652861, -0.0035960935033322906)",-2.7476417789477083,depth,0,0,0
20190731_211430,-0.2829033638682924,0.021148409630467754,-0.010436885228971744,0.0,0.0,0.0,0.0,0.0,0.0,-117.20425582780673,36.993437037010274,-68.73355807985102,"(0.9899513326229715, 0.009732602160137223, -0.14102527307120927, -0.003675302489076936)",-2.751852304882903,depth,0,0,0
20190731_211430,-0.28603577508004746,0.02137687114099828,-0.010715062071344098,0.0,0.0,0.0,0.0,0.0,0.0,-119.78112981205187,34.88070546654017,-68.45180345427856,"(0.9897277819973801, 0.00981539115222287, -0.14257732591253122, -0.0037791235369057955)",-2.779120253332043,depth,0,0,0
20190731_211430,-0.2897121805427385,0.021478811457777303,-0.010946655755518541,0.0,0.0,0.0,0.0,0.0,0.0,-118.6358524857207,34.88070546654017,-71.26934971000315,"(0.9894632904315978, 0.00983653961916896, -0.14439770569131904, -0.0038654841455317696)",-2.770492053196386,depth,0,0,0
20190731_211430,-0.29313647254733355,0.02155723393348335,-0.011229944790772738,0.0,0.0,0.0,0.0,0.0,0.0,-119.2084911488863,36.087980649665944,-72.95987746343792,"(0.9892138696257391, 0.009842693802896409, -0.14609311610032302, -0.003980319945872756)",-2.757911114832044,depth,0,0,0
20190731_211431,-0.29681579787926204,0.021702693839893122,-0.011427434568474663,0.0,0.0,0.0,0.0,0.0,0.0,-118.3495331541379,34.57888667075873,-69.86057658214085,"(0.9889425418567466, 0.009886883196649423, -0.14791391972339527, -0.0040460843582383115)",-2.7713247400030405,depth,0,0,0
20190731_211431,-0.29997825781898835,0.021734382753503752,-0.011559654421671395,0.0,0.0,0.0,0.0,0.0,0.0,-116.63161716464116,35.78616185388451,-72.67812283786546,"(0.9887071887537172, 0.009881182566795245, -0.14947816812178616, -0.004090769213544941)",-2.7488680017176375,depth,0,0,0
20190731_211431,-0.3031772815408157,0.021793939863808086,-0.011771970476240958,0.0,0.0,0.0,0.0,0.0,0.0,-118.06321382255513,33.06979269185151,-68.45180345427856,"(0.9884662989269221, 0.009882831012572766, -0.1510605662737094, -0.004172631538509299)",-2.7839568554922924,depth,0,0,0
20190731_211431,-0.3056595347056327,0.021892630004172617,-0.011942487375088894,0.0,0.0,0.0,0.0,0.0,0.0,-117.20425582780673,36.389799445447395,-72.67812283786546,"(0.9882773638729635, 0.009909342967914354, -0.15228828777798972, -0.004234900695283613)",-2.742921523345349,depth,0,0,0
20190731_211431,-0.30904969366036605,0.02197761299490946,-0.012131956657498567,0.0,0.0,0.0,0.0,0.0,0.0,-116.63161716464116,36.993437037010274,-69.29706733099593,"(0.9880171979116088, 0.00992389767640799, -0.1539643629266421, -0.004302073266955825)",-2.738430081828656,depth,0,0,0
20190731_211431,-0.31162703211356757,0.022058537307134654,-0.012329822835249476,0.0,0.0,0.0,0.0,0.0,0.0,-117.49057515938954,37.295255832791725,-69.5788219565684,"(0.9878173079175004, 0.009938597678970519, -0.15523859299457446, -0.004378321580514955)",-2.737394217079597,depth,0,0,0
20190731_211431,-0.3148153331760562,0.022082118464543454,-0.012504163991580898,0.0,0.0,0.0,0.0,0.0,0.0,-116.63161716464116,35.78616185388451,-69.29706733099593,"(0.9875682926059608, 0.009924123062067133, -0.1568140079943237, -0.004443660377732361)",-2.7474120276538563,depth,0,0,0
20190731_211431,-0.31771124441574555,0.0221638814831197,-0.012687692905403643,0.0,0.0,0.0,0.0,0.0,0.0,-119.2084911488863,36.69161824122883,-70.70584045885823,"(0.987339579308598, 0.009938509201564355, -0.15824486032781812, -0.004510581492502102)",-2.7453066577800214,depth,0,0,0
20190731_211431,-0.3200142694563439,0.02221356328941878,-0.012887911557555283,0.0,0.0,0.0,0.0,0.0,0.0,-116.34529783305835,36.087980649665944,-70.14233120771331,"(0.9871561619979847, 0.009937837719509974, -0.1593827707627654, -0.004591687582245024)",-2.7400184886553545,depth,0,0,0
20190731_211432,-0.3225402986611647,0.02231668168714473,-0.013084855995779108,0.0,0.0,0.0,0.0,0.0,0.0,-117.77689449097232,33.371611487632954,-72.11461358672054,"(0.9869532826032632, 0.009962629525586441, -0.16063062472088566, -0.004665444604459086)",-2.767509745267993,depth,0,0,0
20190731_211432,-0.32531204273921566,0.022305095762115305,-0.013219294880805438,0.0,0.0,0.0,0.0,0.0,0.0,-118.9221718173035,35.182524262321614,-69.86057658214085,"(0.9867296639585508, 0.009934582739771596, -0.1619988697248978, -0.004715987477499121)",-2.756466225602398,depth,0,0,0
20190731_211432,-0.32746969445463175,0.02238586433028408,-0.013412730135176089,0.0,0.0,0.0,0.0,0.0,0.0,-119.78112981205187,36.087980649665944,-69.5788219565684,"(0.9865536176802921, 0.009949662721913019, -0.16306441182930062, -0.004791789687816377)",-2.7505951815549534,depth,0,0,0
20190731_211432,-0.33072011201132034,0.022526729060802213,-0.01365949796285695,0.0,0.0,0.0,0.0,0.0,0.0,-118.9221718173035,36.389799445447395,-68.73355807985102,"(0.9862862447792987, 0.009985080915025311, -0.16466908055271962, -0.004882154052429257)",-2.7444519396625666,depth,0,0,0
20190731_211432,-0.3334190009116683,0.02250501169283826,-0.013754411044963817,0.0,0.0,0.0,0.0,0.0,0.0,-119.49481048046907,35.78616185388451,-69.29706733099593,"(0.9860632159711141, 0.009954894884372963, -0.16600025431051543, -0.004914239044762577)",-2.7503236975193435,depth,0,0,0
20190731_211432,-0.3358673539282741,0.022562767088279114,-0.013936775464986464,0.0,0.0,0.0,0.0,0.0,0.0,-120.64008780680024,35.78616185388451,-69.86057658214085,"(0.9858587124221299, 0.00995752308595233, -0.16720826366355693, -0.0049843192104406155)",-2.752652358765058,depth,0,0,0
20190731_211432,-0.3378102957267156,0.02272253955337343,-0.014158634591902511,0.0,0.0,0.0,0.0,0.0,0.0,-119.2084911488863,35.48434305810306,-70.14233120771331,"(0.9856946057751622, 0.01000910159117193, -0.1681674001598579, -0.005068289115603486)",-2.748915289674495,depth,0,0,0
20190731_211432,-0.3395154942578378,0.022804983686663303,-0.014341934436275287,0.0,0.0,0.0,0.0,0.0,0.0,-118.06321382255513,37.295255832791725,-69.01531270542347,"(0.9855501231594305, 0.01002665702144269, -0.16900884637629227, -0.005141083150541582)",-2.7283846140813646,depth,0,0,0
20190731_211432,-0.3420725397364356,0.022856452723928083,-0.014528272254493215,0.0,0.0,0.0,0.0,0.0,0.0,-117.49057515938954,36.69161824122883,-70.14233120771331,"(0.9853327026995707, 0.010024643507331586, -0.17026978738292722, -0.0052125826499854425)",-2.72890263285732,depth,0,0,0
20190731_211433,-0.3444032846038361,0.02293817646749188,-0.014718116634451748,0.0,0.0,0.0,0.0,0.0,0.0,-117.77689449097232,36.389799445447395,-73.24163208901037,"(0.9851328894072107, 0.010038011703137738, -0.17141908399991537, -0.0052845217265283274)",-2.7267437849222924,depth,0,0,0
20190731_211433,-0.34614992335957323,0.0230866222477225,-0.014967503420630248,0.0,0.0,0.0,0.0,0.0,0.0,-116.63161716464116,35.78616185388451,-68.73355807985102,"(0.9849815445732074, 0.010081586421088742, -0.17228097829356043, -0.005383584644687263)",-2.7346114278933804,depth,0,0,0
20190731_211433,-0.3484987702571192,0.023086891316948716,-0.015149974679546995,0.0,0.0,0.0,0.0,0.0,0.0,-116.63161716464116,36.993437037010274,-68.73355807985102,"(0.9847782391244355, 0.010054896582913987, -0.17343852850557318, -0.005458537487694128)",-2.7219249690662997,depth,0,0,0
20190731_211433,-0.35050706158924716,0.023204803461548313,-0.015346875432107538,0.0,0.0,0.0,0.0,0.0,0.0,-118.6358524857207,36.087980649665944,-67.88829420313364,"(0.9846026242217001, 0.010086267251878805, -0.17442858585851537, -0.005532451903462852)",-2.738944464557037,depth,0,0,0
20190731_211433,-0.3527484814315528,0.023275202755534314,-0.01546153428598954,0.0,0.0,0.0,0.0,0.0,0.0,-120.06744914363465,38.200712220136054,-70.9875950844307,"(0.9844060457008553, 0.010100114150375199, -0.17553266867410056, -0.0055684028144227385)",-2.7184206566978446,depth,0,0,0
20190731_211433,-0.35493147931964714,0.0233557648615176,-0.015628680895610765,0.0,0.0,0.0,0.0,0.0,0.0,-117.49057515938954,36.69161824122883,-71.83285896114808,"(0.9842131847059774, 0.010114458381454972, -0.17660807710854595, -0.005629554386384881)",-2.7199018292785553,depth,0,0,0
20190731_211433,-0.35707595523332,0.023387340628298225,-0.0157985019144204,0.0,0.0,0.0,0.0,0.0,0.0,-118.3495331541379,35.182524262321614,-71.55110433557562,"(0.9840228059120903, 0.010104445735585133, -0.17766419882484671, -0.005696496923431845)",-2.737519603312309,depth,0,0,0
20190731_211433,-0.35900528079987887,0.023395128594408524,-0.0159298188073113,0.0,0.0,0.0,0.0,0.0,0.0,-115.77265916989279,35.48434305810306,-71.83285896114808,"(0.98385072282324, 0.010087043043780662, -0.17861401936012938, -0.005747943183463097)",-2.7227172516345837,depth,0,0,0
20190731_211433,-0.3608109698575222,0.023412460680908697,-0.016098322838441325,0.0,0.0,0.0,0.0,0.0,0.0,-118.6358524857207,39.106168607480384,-70.14233120771331,"(0.9836886526739861, 0.010071479717030459, -0.17950307953271127, -0.005817588419659972)",-2.7017376454223747,depth,0,0,0.015
20190731_211434,-0.36229008469987023,0.02354228651971556,-0.01627982352953115,0.0,0.0,0.0,0.0,0.0,0.0,-119.49481048046907,36.993437037010274,-70.9875950844307,"(0.983554582516434, 0.010111557314348332, -0.18023179461846256, -0.005885560993680346)",-2.723037372631244,depth,0,0,0.09
20190731_211434,-0.3643725427218788,0.02360173517380786,-0.01642526228104322,0.0,0.0,0.0,0.0,0.0,0.0,-116.63161716464116,35.182524262321614,-69.86057658214085,"(0.9833658531796009, 0.010117056778148996, -0.18125667699872558, -0.005938097833756911)",-2.7301328039900783,depth,0,0,0.18000000000000005
20190731_211434,-0.3660760303951853,0.023657890023060867,-0.01660511408679205,0.0,0.0,0.0,0.0,0.0,0.0,-118.6358524857207,34.88070546654017,-70.70584045885823,"(0.983210453892782, 0.010119584380774949, -0.18209523413375378, -0.006010247389539145)",-2.7388121029653516,depth,0,0,0.2550000000000001
20190731_211434,-0.3676122897474465,0.023719714981181958,-0.016762594090340078,0.0,0.0,0.0,0.0,0.0,0.0,-117.49057515938954,36.69161824122883,-69.01531270542347,"(0.9830696513456483, 0.010127648706934191, -0.18285136941561012, -0.006071905602934749)",-2.718764045601497,depth,0,0,0.3300000000000002
20190731_211434,-0.36944000532456545,0.023805420594399166,-0.01689974311143832,0.0,0.0,0.0,0.0,0.0,0.0,-117.49057515938954,35.48434305810306,-71.26934971000315,"(0.9829014675173957, 0.01014765351572666, -0.18375060140604885, -0.006119376045804047)",-2.7256056195277933,depth,0,0,0.40500000000000025
20190731_211434,-0.3711504808112552,0.02391948228572165,-0.017120589478526047,0.0,0.0,0.0,0.0,0.0,0.0,-117.77689449097232,36.389799445447395,-73.24163208901037,"(0.9827428676112203, 0.010174340560690822, -0.18459258959461394, -0.006206030952647889)",-2.7132906877397365,depth,0,0,0.4800000000000003
20190731_211434,-0.37290571182459614,0.024000343302515926,-0.01731275081037755,0.0,0.0,0.0,0.0,0.0,0.0,-118.9221718173035,35.78616185388451,-70.9875950844307,"(0.9825796537112772, 0.010186924595260799, -0.1854561855315561, -0.006281236184249498)",-2.7271999405984966,depth,0,0,0.5550000000000004
20190731_211434,-0.374519696756535,0.02404851008099358,-0.017469781906175336,0.0,0.0,0.0,0.0,0.0,0.0,-116.05897850147558,35.182524262321614,-69.29706733099593,"(0.9824290963689335, 0.010187298989683694, -0.1862499797515193, -0.006343074142246499)",-2.7237857671178665,depth,0,0,0.6300000000000004
20190731_211435,-0.37605362843597817,0.024128561644068625,-0.017622619514846748,0.0,0.0,0.0,0.0,0.0,0.0,-117.20425582780673,36.389799445447395,-74.93215984244513,"(0.9822852239001161, 0.010204023681569014, -0.18700441811211757, -0.006400344893328766)",-2.704947676977254,depth,0,0,0.7200000000000005
20190731_211435,-0.37768840078133453,0.024232357970876087,-0.01782825949246319,0.0,0.0,0.0,0.0,0.0,0.0,-116.34529783305835,36.087980649665944,-69.5788219565684,"(0.9821310200919416, 0.010226762852791884, -0.1878086132787149, -0.006480545736360771)",-2.7137705466269475,depth,0,0,0.7950000000000006
20190731_211435,-0.37915151173869327,0.024264610940147646,-0.017963421998889447,0.0,0.0,0.0,0.0,0.0,0.0,-118.06321382255513,34.88070546654017,-71.83285896114808,"(0.9819929158388395, 0.010221786793245256, -0.18852781217984643, -0.006533938457622091)",-2.7279686162575967,depth,0,0,0.8700000000000007
20190731_211435,-0.38057210566326544,0.02437986648330301,-0.018155307749780573,0.0,0.0,0.0,0.0,0.0,0.0,-116.63161716464116,38.200712220136054,-70.9875950844307,"(0.981857689756139, 0.010252322998775609, -0.18922660215158701, -0.00660756975228846)",-2.689841233732839,depth,0,0,0.9300000000000007
20190731_211435,-0.3820554577186277,0.024380333177082946,-0.018276485876641796,0.0,0.0,0.0,0.0,0.0,0.0,-118.06321382255513,37.89889342435461,-71.26934971000315,"(0.9817168321344268, 0.010232719592628937, -0.18995536118520934, -0.00665685441337096)",-2.6977299204306684,depth,0,0,1.0050000000000008
20190731_211435,-0.3835254892186499,0.024419899867991295,-0.01841286601435383,0.0,0.0,0.0,0.0,0.0,0.0,-118.9221718173035,35.182524262321614,-70.9875950844307,"(0.981576449816331, 0.010230838317472625, -0.19067768559457898, -0.006709942591759175)",-2.7278454423798313,depth,0,0,1.0950000000000002
20190731_211435,-0.38484266337223355,0.024476891929952834,-0.018551679926158214,0.0,0.0,0.0,0.0,0.0,0.0,-120.35376847521745,36.69161824122883,-71.83285896114808,"(0.9814500456392693, 0.010238040230551328, -0.1913249714655051, -0.006763559760784108)",-2.716580246160048,depth,0,0,1.1699999999999997
20190731_211435,-0.38615299769058653,0.024503146395460508,-0.01866642576059361,0.0,0.0,0.0,0.0,0.0,0.0,-116.34529783305835,36.69161824122883,-67.88829420313364,"(0.9813241077892983, 0.010232408525502574, -0.1919685917804518, -0.006808307949514322)",-2.7067787967452905,depth,0,0,1.2449999999999992
20190731_211435,-0.38752209467956855,0.024570051328715908,-0.01882935111157489,0.0,0.0,0.0,0.0,0.0,0.0,-116.91793649622393,36.087980649665944,-72.396368212293,"(0.9811917205301498, 0.01024165749254092, -0.19264134293446658, -0.006872336378199002)",-2.7055032920350994,depth,0,0,1.3199999999999987
20190731_211435,-0.38867767984819207,0.02462157552773091,-0.018953600461328827,0.0,0.0,0.0,0.0,0.0,0.0,-118.3495331541379,36.389799445447395,-72.11461358672054,"(0.9810796891352205, 0.010248223318690514, -0.19320902412811586, -0.006920294835515817)",-2.7086017777697067,depth,0,0,1.3949999999999982
20190731_211435,-0.39000797324095593,0.02459652133818844,-0.01906257385944815,0.0,0.0,0.0,0.0,0.0,0.0,-117.77689449097232,36.389799445447395,-70.9875950844307,"(0.9809508621072157, 0.010217604226717749, -0.19386198370422517, -0.006966919637775803)",-2.707744945039221,depth,0,0,1.4699999999999978
20190731_211436,-0.3912636916018972,0.02460933780724663,-0.019196718882214303,0.0,0.0,0.0,0.0,0.0,0.0,-118.06321382255513,34.277067874977284,-70.70584045885823,"(0.9808285608623376, 0.010203476994954776, -0.19447854533267495, -0.007022724486698219)",-2.7300991121222817,depth,0,0,1.4700000000000002
20190731_211436,-0.39243588915294847,0.024627789658727393,-0.01930728687637843,0.0,0.0,0.0,0.0,0.0,0.0,-116.91793649622393,35.48434305810306,-71.83285896114808,"(0.980714061257864, 0.010194820351486888, -0.19505397602127916, -0.007066974416089717)",-2.710166105491043,depth,0,0,1.3800000000000008
20190731_211436,-0.3936491289015527,0.0246881346378807,-0.01951164498773851,0.0,0.0,0.0,0.0,0.0,0.0,-118.06321382255513,35.48434305810306,-71.83285896114808,"(0.9805946650712821, 0.010197214775248535, -0.19565008846671, -0.007152798580690962)",-2.7144239602101647,depth,0,0,1.3200000000000012
20190731_211436,-0.3947755836091153,0.024706765469729716,-0.019686800900646912,0.0,0.0,0.0,0.0,0.0,0.0,-117.77689449097232,35.182524262321614,-70.9875950844307,"(0.9804837227840915, 0.01018241606560371, -0.19620328767308012, -0.007228946312606241)",-2.717375204782299,depth,0,0,1.2450000000000017
20190731_211436,-0.3959415095121406,0.024714240517322794,-0.019854780790722525,0.0,0.0,0.0,0.0,0.0,0.0,-119.49481048046907,37.59707462857317,-72.11461358672054,"(0.9803686680484388, 0.010162512770074371, -0.19677569341327003, -0.007302364333234699)",-2.697791120554217,depth,0,0,1.1700000000000021
20190731_211436,-0.39700437872736644,0.024701610575392684,-0.019981393986586115,0.0,0.0,0.0,0.0,0.0,0.0,-115.77265916989279,38.5025310159175,-73.52338671458284,"(0.9802636842929118, 0.010137367065869174, -0.19729723788350875, -0.007358190606166238)",-2.668350753888233,depth,0,0,1.0950000000000026
20190731_211436,-0.39818147575300483,0.024761913799745343,-0.02014408632654727,0.0,0.0,0.0,0.0,0.0,0.0,-118.6358524857207,34.88070546654017,-72.396368212293,"(0.9801466313841973, 0.010143624616431928, -0.1978751550927306, -0.00742366909818481)",-2.7194484884970924,depth,0,0,1.0200000000000031
20190731_211436,-0.39917932815401647,0.024726638983594475,-0.020223310677335547,0.0,0.0,0.0,0.0,0.0,0.0,-118.3495331541379,40.01162499482472,-69.29706733099593,"(0.9800477902173478, 0.010112333110265168, -0.19836439655602803, -0.007458940147468587)",-2.673490185049301,depth,0,0,0.9450000000000032
20190731_211436,-0.4001417933093547,0.024766902291204228,-0.020340991722155314,0.0,0.0,0.0,0.0,0.0,0.0,-118.9221718173035,36.389799445447395,-73.24163208901037,"(0.9799516916510289, 0.010114411821771845, -0.19883672610348532, -0.007505801505094035)",-2.7026867463662287,depth,0,0,0.8700000000000031
20190731_211437,-0.4013026136357026,0.024759163212262316,-0.02048323680509059,0.0,0.0,0.0,0.0,0.0,0.0,-118.9221718173035,37.59707462857317,-72.67812283786546,"(0.9798357663403742, 0.010089223272817981, -0.19940612650853357, -0.0075680436564368085)",-2.6912287262398555,depth,0,0,0.795000000000003
20190731_211437,-0.4023276484766349,0.024807833552848005,-0.020567238815845063,0.0,0.0,0.0,0.0,0.0,0.0,-118.9221718173035,35.78616185388451,-70.42408583328577,"(0.9797330020133844, 0.01009825989234277, -0.19990886554253454, -0.007597064596613347)",-2.7134023814264197,depth,0,0,0.720000000000003
20190731_211437,-0.40323551628823057,0.02475703172983174,-0.020666392817720414,0.0,0.0,0.0,0.0,0.0,0.0,-116.63161716464116,36.389799445447395,-71.55110433557562,"(0.9796421473973824, 0.01005774364079762, -0.20035386182713696, -0.0076442714796102216)",-2.6944852516094384,depth,0,0,0.6450000000000029
20190731_211437,-0.4042819625266249,0.024766862797983763,-0.020750961950907643,0.0,0.0,0.0,0.0,0.0,0.0,-116.63161716464116,36.389799445447395,-70.9875950844307,"(0.9795369414954737, 0.010047470212141864, -0.20086684156533494, -0.007677274750562162)",-2.6951386407189597,depth,0,0,0.5700000000000028
20190731_211437,-0.4051865944499835,0.024830317712436517,-0.02083583981074428,0.0,0.0,0.0,0.0,0.0,0.0,-114.62738184356164,36.69161824122883,-70.14233120771331,"(0.9794454546320965, 0.01006427966024929, -0.20131052843559774, -0.007706024683756771)",-2.6842184023028763,depth,0,0,0.49500000000000277
20190731_211437,-0.4061394666181184,0.024902962672221807,-0.021024566616556748,0.0,0.0,0.0,0.0,0.0,0.0,-116.34529783305835,35.48434305810306,-68.45180345427856,"(0.9793484564116219, 0.010074758901416073, -0.20177835503901467, -0.007784317246969948)",-2.7074947287596944,depth,0,0,0.4200000000000027
20190731_211437,-0.4069841485449697,0.02502357412926184,-0.021130577081346243,0.0,0.0,0.0,0.0,0.0,0.0,-118.6358524857207,38.5025310159175,-71.26934971000315,"(0.9792622360533787, 0.010117687289894975, -0.20219293898547486, -0.00781798363114309)",-2.680793727399805,depth,0,0,0.34500000000000264
20190731_211437,-0.4079042701850511,0.025051733720154193,-0.02124965686741739,0.0,0.0,0.0,0.0,0.0,0.0,-118.6358524857207,35.48434305810306,-71.26934971000315,"(0.9791686213684345, 0.010113484231089476, -0.20264412565706366, -0.00786681007976751)",-2.710433033018994,depth,0,0,0.27000000000000257
20190731_211437,-0.40878853821845523,0.025119553527730196,-0.02140522807562616,0.0,0.0,0.0,0.0,0.0,0.0,-118.3495331541379,35.78616185388451,-69.86057658214085,"(0.9790780878724386, 0.010125165804359416, -0.20307806039364418, -0.007929706945340903)",-2.7086248796850145,depth,0,0,0.1950000000000025
20190731_211438,-0.4096861745912862,0.025218975326882213,-0.021487402498866784,0.0,0.0,0.0,0.0,0.0,0.0,-116.34529783305835,37.295255832791725,-71.26934971000315,"(0.9789861320791403, 0.010159621947763925, -0.20351825470746723, -0.007953318768228343)",-2.6807524105613734,depth,0,0,0.12000000000000245
20190731_211438,-0.4103880296295781,0.025264409811790067,-0.021624196573223235,0.0,0.0,0.0,0.0,0.0,0.0,-116.91793649622393,36.69161824122883,-70.14233120771331,"(0.9789139681786777, 0.010163324882471734, -0.20386265213045482, -0.008010542949476097)",-2.6916066040712217,depth,0,0,0.060000000000002454
20190731_211438,-0.4113378387538602,0.025259108696883536,-0.02174872510866808,0.0,0.0,0.0,0.0,0.0,0.0,-119.78112981205187,36.087980649665944,-71.83285896114808,"(0.978816696135301, 0.010141758254674954, -0.2043281040525592, -0.008065110077634765)",-2.706131408194481,depth,0,0,2.456368441983159e-15
20190731_211438,-0.41208113694990156,0.025304090594327713,-0.02188615433182458,0.0,0.0,0.0,0.0,0.0,0.0,-115.48633983830999,36.389799445447395,-74.36865059130021,"(0.9787400060626424, 0.010144790637712708, -0.20469272422541296, -0.008122339847265573)",-2.677378343397525,depth,0,0,-0.07499999999999754
20190731_211438,-0.4128221402629462,0.025352158558093002,-0.02201392785163132,0.0,0.0,0.0,0.0,0.0,0.0,-117.49057515938954,37.89889342435461,-70.14233120771331,"(0.9786634360832372, 0.010150283574498929, -0.20505615788313852, -0.008174517191496273)",-2.6806757765361997,depth,0,0,-0.14999999999999752
20190731_211438,-0.4136906018975231,0.025400718739793913,-0.022142241390543535,0.0,0.0,0.0,0.0,0.0,0.0,-116.91793649622393,36.69161824122883,-71.26934971000315,"(0.9785736483776466, 0.010155053810515955, -0.2054819297294513, -0.008225942962868606)",-2.6871740985348507,depth,0,0,-0.2249999999999976
20190731_211438,-0.4142980940983307,0.025433852807911616,-0.022245248125788382,0.0,0.0,0.0,0.0,0.0,0.0,-117.20425582780673,36.993437037010274,-72.11461358672054,"(0.9785106796326339, 0.010156583040490842, -0.2057798001821644, -0.008268464356284859)",-2.697960520134551,depth,0,0,-0.31499999999999767
20190731_211438,-0.41473419040925386,0.025481087995573456,-0.022393119117876063,0.0,0.0,0.0,0.0,0.0,0.0,-115.77265916989279,34.88070546654017,-70.70584045885823,"(0.9784649933401909, 0.01016151812574846, -0.2059940920592235, -0.008332730276230134)",-2.7012995559436197,depth,0,0,-0.38999999999999774
20190731_211438,-0.4152903652765622,0.025560966125610828,-0.022572301444048006,0.0,0.0,0.0,0.0,0.0,0.0,-117.77689449097232,34.57888667075873,-71.55110433557562,"(0.9784065929433663, 0.010178338733589072, -0.2062674117657398, -0.00840804073736002)",-2.711132635356312,depth,0,0,-0.4649999999999978
20190731_211439,-0.4158440420117418,0.025592422160954715,-0.022728357452055443,0.0,0.0,0.0,0.0,0.0,0.0,-116.63161716464116,36.389799445447395,-70.9875950844307,"(0.9783487122490236, 0.010173823682500712, -0.20653917450217799, -0.008477024732392747)",-2.688263665279682,depth,0,0,-0.5399999999999978
20190731_211439,-0.41655050772697166,0.025672292459903295,-0.022884781071191792,0.0,0.0,0.0,0.0,0.0,0.0,-119.2084911488863,37.89889342435461,-69.5788219565684,"(0.9782747234895373, 0.010191849432621263, -0.20688586122751, -0.008540024049358563)",-2.6874440522976273,depth,0,0,-0.6149999999999979
20190731_211439,-0.4175068027261496,0.02573200098794887,-0.023038095505447023,0.0,0.0,0.0,0.0,0.0,0.0,-120.35376847521745,36.69161824122883,-73.52338671458284,"(0.9781748661065172, 0.0101985344655899, -0.20735460518293544, -0.008601681328688897)",-2.6952317023220846,depth,0,0,-0.689999999999998
20190731_211439,-0.41788012141152764,0.025816452958819177,-0.023248626611285513,0.0,0.0,0.0,0.0,0.0,0.0,-119.78112981205187,35.48434305810306,-70.70584045885823,"(0.9781348574466138, 0.010215389541821633, -0.2075386149715311, -0.008693086914326706)",-2.710825170682643,depth,0,0,-0.764999999999998
20190731_211439,-0.4185195020202852,0.025817939879319882,-0.023355681502421913,0.0,0.0,0.0,0.0,0.0,0.0,-117.49057515938954,34.88070546654017,-70.14233120771331,"(0.9780680791825077, 0.010200499560237799, -0.20785183745598862, -0.00874047819805981)",-2.7079668807434993,depth,0,0,-0.8399999999999981
20190731_211439,-0.4191723618998775,0.025875570771877656,-0.023476589801661656,0.0,0.0,0.0,0.0,0.0,0.0,-116.91793649622393,37.89889342435461,-72.95987746343792,"(0.9779994505462859, 0.01021149195633996, -0.20817194597687122, -0.008788689970137974)",-2.667483936494157,depth,0,0,-0.9149999999999981
20190731_211439,-0.4197606715037991,0.02595271477517879,-0.023654813060512436,0.0,0.0,0.0,0.0,0.0,0.0,-119.49481048046907,37.59707462857317,-68.73355807985102,"(0.9779370804540355, 0.01022646761967043, -0.2084608524092692, -0.008863354097758807)",-2.69168038628438,depth,0,0,-0.9899999999999982
20190731_211439,-0.4202807690236415,0.02598150865226839,-0.023784606680900638,0.0,0.0,0.0,0.0,0.0,0.0,-116.05897850147558,38.804349811698934,-70.42408583328577,"(0.9778821913793866, 0.010223289950015388, -0.20871593147838843, -0.008919869548118261)",-2.6595926381053654,depth,0,0,-1.0649999999999977
20190731_211439,-0.4210058568309114,0.026015739418012822,-0.023936062707927575,0.0,0.0,0.0,0.0,0.0,0.0,-118.3495331541379,36.993437037010274,-68.73355807985102,"(0.9778057153463464, 0.010218993763697826, -0.20907134662108057, -0.008984833027125987)",-2.691935127167785,depth,0,0,-1.1399999999999972
20190731_211440,-0.42160248619938706,0.026087410735123853,-0.024120778864216326,0.0,0.0,0.0,0.0,0.0,0.0,-116.05897850147558,36.993437037010274,-69.29706733099593,"(0.9777421940559576, 0.0102303931474717, -0.20936427914288358, -0.009063092059069819)",-2.6798246589086645,depth,0,0,-1.2149999999999967
20190731_211440,-0.42217361021125377,0.026174673626675485,-0.024256924244874325,0.0,0.0,0.0,0.0,0.0,0.0,-118.06321382255513,37.295255832791725,-70.14233120771331,"(0.9776813901480789, 0.010254632683058354, -0.20964455141856614, -0.009116135538913514)",-2.683657580974158,depth,0,0,-1.2899999999999963
20190731_211440,-0.4227705662647349,0.026219395640185956,-0.02436491057930427,0.0,0.0,0.0,0.0,0.0,0.0,-117.77689449097232,36.993437037010274,-69.86057658214085,"(0.9776181423686201, 0.01026079990323947, -0.20993709664588553, -0.009159647862795002)",-2.685694851818054,depth,0,0,-1.3649999999999958
20190731_211440,-0.42304399281366173,0.026233492395338728,-0.024478266284196717,0.0,0.0,0.0,0.0,0.0,0.0,-118.3495331541379,35.182524262321614,-70.42408583328577,"(0.9775888818904327, 0.01025377959172362, -0.21007138493942065, -0.009211473168374356)",-2.7053020230034632,depth,0,0,-1.4549999999999952
20190731_211440,-0.4239021653330043,0.026249645690385452,-0.024579754458411915,0.0,0.0,0.0,0.0,0.0,0.0,-117.77689449097232,36.389799445447395,-69.86057658214085,"(0.977498236783301, 0.010244676840557295, -0.21049140108731598, -0.009252769870082085)",-2.6911849587001915,depth,0,0,-1.485
20190731_211440,-0.42420631698302974,0.026276053802342984,-0.024706229387973993,0.0,0.0,0.0,0.0,0.0,0.0,-117.77689449097232,38.200712220136054,-71.55110433557562,"(0.97746554070775, 0.010242016060317487, -0.21064081240843424, -0.009309456688810513)",-2.668672024404148,depth,0,0,-1.4100000000000006
20190731_211440,-0.4250417932448934,0.026354849316591857,-0.024911261529286615,0.0,0.0,0.0,0.0,0.0,0.0,-116.05897850147558,36.993437037010274,-69.86057658214085,"(0.977376233255212, 0.01025268622162525, -0.21105050863026434, -0.009394886907311563)",-2.676361034546562,depth,0,0,-1.335000000000001
20190731_211440,-0.42555187492311936,0.026401207179657462,-0.025021050148576654,0.0,0.0,0.0,0.0,0.0,0.0,-118.06321382255513,36.087980649665944,-69.01531270542347,"(0.9773217022703055, 0.010259926321375946, -0.2113005361052561, -0.00943968352137726)",-2.6964947797792984,depth,0,0,-1.2600000000000016
20190731_211440,-0.4261249035471506,0.026435065528883212,-0.025170521681923144,0.0,0.0,0.0,0.0,0.0,0.0,-117.20425582780673,36.389799445447395,-70.42408583328577,"(0.9772603326534989, 0.010256355629409405, -0.21158145090844105, -0.009504684248038592)",-2.6858941672094794,depth,0,0,-1.185000000000002
20190731_211441,-0.4266336944261934,0.02645790674869085,-0.025367714992053467,0.0,0.0,0.0,0.0,0.0,0.0,-117.20425582780673,35.78616185388451,-68.73355807985102,"(0.9772054999878445, 0.010242789983552006, -0.2118311561603256, -0.009594650938922047)",-2.695765777996203,depth,0,0,-1.0950000000000026
20190731_211441,-0.4270922626905662,0.026454250532396098,-0.025454566125737686,0.0,0.0,0.0,0.0,0.0,0.0,-118.9221718173035,36.389799445447395,-70.9875950844307,"(0.9771565812569039, 0.010228310710632823, -0.21205561885298016, -0.00963389221480031)",-2.691842642311918,depth,0,0,-1.0200000000000031
20190731_211441,-0.42750146958198765,0.026448430977553165,-0.025574877033696132,0.0,0.0,0.0,0.0,0.0,0.0,-117.77689449097232,34.57888667075873,-70.9875950844307,"(0.9771126894182578, 0.010209580887174082, -0.21225611594003763, -0.00969009194882843)",-2.705167143890869,depth,0,0,-0.9450000000000032
20190731_211441,-0.42882286677196535,0.026355958944667898,-0.025704195870110257,0.0,0.0,0.0,0.0,0.0,0.0,-117.49057515938954,36.087980649665944,-70.70584045885823,"(0.9769722991728262, 0.010140532632644387, -0.21290180749392454, -0.009752774615869085)",-2.6881747098310793,depth,0,0,-0.8850000000000031
20190731_211441,-0.4281122451539651,0.02638484890109025,-0.025859789505391143,0.0,0.0,0.0,0.0,0.0,0.0,-117.77689449097232,33.97524907919585,-71.55110433557562,"(0.9770468576790877, 0.010143566867926723, -0.21255562156786198, -0.00983126088131404)",-2.7099089555664415,depth,0,0,-0.810000000000003
20190731_211441,-0.42805219145188095,0.026497126826468143,-0.026030291010382595,0.0,0.0,0.0,0.0,0.0,0.0,-119.2084911488863,36.69161824122883,-72.95987746343792,"(0.9770518178944994, 0.010180762969816792, -0.21252770630574092, -0.009903093800784621)",-2.6848819285782546,depth,0,0,-0.735000000000003
20190731_211441,-0.4284950217068203,0.02662415706098653,-0.02621190268525311,0.0,0.0,0.0,0.0,0.0,0.0,-116.91793649622393,35.48434305810306,-70.70584045885823,"(0.9770032615789588, 0.010220060126374188, -0.21274557619436124, -0.009974820540703007)",-2.691812263849418,depth,0,0,-0.6450000000000029
20190731_211441,-0.4288968371006314,0.02664277371756971,-0.02637670356564807,0.0,0.0,0.0,0.0,0.0,0.0,-116.91793649622393,33.06979269185151,-71.83285896114808,"(0.9769596481683193, 0.01020846609608775, -0.21294277918570162, -0.010050167335344869)",-2.7144477757749192,depth,0,0,-0.5700000000000028
20190731_211441,-0.42888483909050557,0.02669787911390296,-0.026512227892444097,0.0,0.0,0.0,0.0,0.0,0.0,-116.63161716464116,35.78616185388451,-72.11461358672054,"(0.9769599590189324, 0.01022104919319173, -0.21293788876484232, -0.010110596198448318)",-2.6836611791340714,depth,0,0,-0.49500000000000277
20190731_211442,-0.42925756696578293,0.026716949720083445,-0.026702765922456868,0.0,0.0,0.0,0.0,0.0,0.0,-119.2084911488863,36.087980649665944,-70.14233120771331,"(0.9769192578898653, 0.010207117533883507, -0.2131210108949527, -0.010198677888713408)",-2.696780440339868,depth,0,0,-0.4200000000000027
20190731_211442,-0.4296063073632931,0.026752956041748127,-0.026833967730395914,0.0,0.0,0.0,0.0,0.0,0.0,-116.05897850147558,34.57888667075873,-68.73355807985102,"(0.976881287274393, 0.010207941757885648, -0.2132921936457078, -0.01025615073964859)",-2.701345789577766,depth,0,0,-0.34500000000000264
20190731_211442,-0.43009511060306976,0.02674306971375993,-0.02693192078001929,0.0,0.0,0.0,0.0,0.0,0.0,-119.2084911488863,36.087980649665944,-70.70584045885823,"(0.9768287619320284, 0.010188754653532087, -0.213531368528641, -0.010301155043801214)",-2.694998149974518,depth,0,0,-0.27000000000000257
20190731_211442,-0.4304804614029012,0.026760440598558283,-0.027054821232094708,0.0,0.0,0.0,0.0,0.0,0.0,-117.20425582780673,33.97524907919585,-71.55110433557562,"(0.976786946289146, 0.010181020948881828, -0.21372027609543476, -0.01035625208532492)",-2.705770860728187,depth,0,0,-0.1800000000000025
20190731_211442,-0.4306975193246238,0.0268141801199403,-0.027201958040425953,0.0,0.0,0.0,0.0,0.0,0.0,-116.34529783305835,36.087980649665944,-70.70584045885823,"(0.9767627462222732, 0.010189791207508056, -0.2138273044898618, -0.010420633477408764)",-2.681465864392691,depth,0,0,-0.10500000000000245
20190731_211442,-0.4312551167288457,0.026824481368760488,-0.02729781861992773,0.0,0.0,0.0,0.0,0.0,0.0,-118.3495331541379,36.389799445447395,-73.24163208901037,"(0.9767026400171377, 0.010180057028364145, -0.21410013646196482, -0.010461882690076491)",-2.6812332937723005,depth,0,0,-0.030000000000002455
20190731_211442,-0.4316070511969279,0.026869352924647955,-0.027450230218044294,0.0,0.0,0.0,0.0,0.0,0.0,-119.49481048046907,35.78616185388451,-69.86057658214085,"(0.9766639851269692, 0.010182789525183837, -0.2142729982376853, -0.01052868366066099)",-2.700387583909324,depth,0,0,0.04499999999999754
20190731_211442,-0.4320313876403252,0.02677799627113284,-0.027507787665363964,0.0,0.0,0.0,0.0,0.0,0.0,-119.49481048046907,36.993437037010274,-68.73355807985102,"(0.9766187380144613, 0.010128552095147235, -0.2144800042954907, -0.010563178920345919)",-2.690595963095326,depth,0,0,0.11999999999999754
20190731_211442,-0.43257300058908543,0.026790504808169364,-0.027661056596070845,0.0,0.0,0.0,0.0,0.0,0.0,-118.06321382255513,37.295255832791725,-71.83285896114808,"(0.976559841771327, 0.010113787834902629, -0.21474529145726778, -0.010632334274485632)",-2.6732747882096084,depth,0,0,0.19499999999999756
20190731_211443,-0.4330328901707954,0.026824890546391675,-0.027846976628228548,0.0,0.0,0.0,0.0,0.0,0.0,-118.06321382255513,35.48434305810306,-71.83285896114808,"(0.9765093537243358, 0.01010682620706747, -0.2149709455079537, -0.01071572397538914)",-2.691656860131766,depth,0,0,0.28499999999999764
20190731_211443,-0.4334925901170276,0.026808229849754787,-0.02799368828952061,0.0,0.0,0.0,0.0,0.0,0.0,-118.3495331541379,38.804349811698934,-70.9875950844307,"(0.9764592962818651, 0.010079118421735813, -0.21519602273335786, -0.010785447432062733)",-2.6609005476877075,depth,0,0,0.3599999999999977
20190731_211443,-0.4340148593153302,0.02678348654255307,-0.028033160124142153,0.0,0.0,0.0,0.0,0.0,0.0,-120.06744914363465,35.78616185388451,-72.11461358672054,"(0.9764030750961129, 0.010058464480631682, -0.2154510467860074, -0.010803178882161136)",-2.696408580728468,depth,0,0,0.4349999999999978
20190731_211443,-0.4350549529951826,0.026652390248042484,-0.028015446571772292,0.0,0.0,0.0,0.0,0.0,0.0,-115.77265916989279,36.69161824122883,-70.14233120771331,"(0.9762918414187775, 0.00998776498764021, -0.21595795443557417, -0.010800316925297518)",-2.671389494972361,depth,0,0,0.5099999999999978
20190731_211443,-0.4352404878788229,0.02655828308045058,-0.028128901946324943,0.0,0.0,0.0,0.0,0.0,0.0,-117.49057515938954,34.277067874977284,-68.45180345427856,"(0.9762716912333843, 0.009928036476070348, -0.21604856930812244, -0.010864377016239529)",-2.7086501475715274,depth,0,0,0.5849999999999979
20190731_211443,-0.4363809094699268,0.02636020631527507,-0.028251354554931222,0.0,0.0,0.0,0.0,0.0,0.0,-117.77689449097232,36.993437037010274,-70.42408583328577,"(0.976148857015652, 0.009808632537943968, -0.21660469363311746, -0.010936469762907517)",-2.6765145753139046,depth,0,0,0.6599999999999979
20190731_211443,-0.43592674330462455,0.02621943580819439,-0.02832419381329797,0.0,0.0,0.0,0.0,0.0,0.0,-117.77689449097232,33.97524907919585,-69.86057658214085,"(0.9761982251576062, 0.009735820813725229, -0.21638262362253127, -0.010990868321149226)",-2.7096450164176815,depth,0,0,0.734999999999998
20190731_211443,-0.43692091523906995,0.02614283820348622,-0.028390025944551707,0.0,0.0,0.0,0.0,0.0,0.0,-117.49057515938954,36.69161824122883,-70.14233120771331,"(0.9760907335088221, 0.009683016683818347, -0.21686770944697562, -0.011023418042192938)",-2.678791879936466,depth,0,0,0.809999999999998
20190731_211443,-0.4377478406752448,0.026256842731143995,-0.028476217780430402,0.0,0.0,0.0,0.0,0.0,0.0,-117.77689449097232,36.389799445447395,-70.9875950844307,"(0.9760001048449055, 0.009722386484976201, -0.2172722816053379, -0.011046546509247681)",-2.6806153033997218,depth,0,0,0.8849999999999981
20190731_211444,-0.4365174658269785,0.026250519215961353,-0.028399160954928417,0.0,0.0,0.0,0.0,0.0,0.0,-117.49057515938954,34.88070546654017,-69.01531270542347,"(0.9761338148920835, 0.009737948885845159, -0.2166714574873555, -0.011019404976196481)",-2.700493652301119,depth,0,0,0.9599999999999982
20190731_211444,-0.43756019100602167,0.026231796304371374,-0.028503506854089745,0.0,0.0,0.0,0.0,0.0,0.0,-120.35376847521745,37.89889342435461,-68.45180345427856,"(0.976020422672938, 0.009708771481202983, -0.21718070933428937, -0.011064075863817815)",-2.6833225661148417,depth,0,0,1.0499999999999978
20190731_211444,-0.4373853813504092,0.02635391919294313,-0.028619289858907684,0.0,0.0,0.0,0.0,0.0,0.0,-118.9221718173035,36.993437037010274,-70.42408583328577,"(0.9760381334867376, 0.009757266377505725, -0.2170966471945597, -0.01110871322181249)",-2.6812600395316006,depth,0,0,1.1249999999999973
20190731_211444,-0.4378938922598754,0.026319801664007124,-0.028731174644717396,0.0,0.0,0.0,0.0,0.0,0.0,-118.06321382255513,34.88070546654017,-70.14233120771331,"(0.9759825408025349, 0.009724180219242786, -0.21734513726388466, -0.011162959976429477)",-2.699577337015908,depth,0,0,1.1999999999999968
20190731_211444,-0.4382981826029934,0.02632054987000904,-0.028840532979159894,0.0,0.0,0.0,0.0,0.0,0.0,-118.3495331541379,34.57888667075873,-68.17004882870609,"(0.9759380448977252, 0.00970923807879183, -0.21754294177327524, -0.011213014838331717)",-2.708436929195185,depth,0,0,1.2749999999999964
20190731_211444,-0.4384129444252726,0.026322584552567745,-0.028906253844850363,0.0,0.0,0.0,0.0,0.0,0.0,-116.91793649622393,35.48434305810306,-70.14233120771331,"(0.9759252029043469, 0.009702108804615445, -0.21759926723432327, -0.011243945923849606)",-2.687694567013655,depth,0,0,1.3499999999999959
20190731_211444,-0.4393486418025134,0.026259692733986015,-0.028947263950065076,0.0,0.0,0.0,0.0,0.0,0.0,-117.77689449097232,37.59707462857317,-69.86057658214085,"(0.9758235398990222, 0.009659012776213153, -0.2180556346830547, -0.011263331394426111)",-2.6700577989543697,depth,0,0,1.4249999999999954
20190731_211444,-0.43920109735111174,0.026297938098676792,-0.029106216448911818,0.0,0.0,0.0,0.0,0.0,0.0,-116.63161716464116,36.993437037010274,-69.86057658214085,"(0.9758385134096405, 0.009661601859282356, -0.2179846354490301, -0.011337896812421961)",-2.670865374786404,depth,0,0,1.499999999999995
20190731_211444,-0.4394887559254506,0.026349828895384512,-0.029243357927265134,0.0,0.0,0.0,0.0,0.0,0.0,-118.06321382255513,37.89889342435461,-71.26934971000315,"(0.9758061743269434, 0.009669507858229865, -0.2181259329524264, -0.011396847670664522)",-2.664668832036042,depth,0,0,1.4400000000000004
20190731_211445,-0.4392998704008373,0.026397232155608078,-0.02938625742044016,0.0,0.0,0.0,0.0,0.0,0.0,-115.77265916989279,34.277067874977284,-70.14233120771331,"(0.9758256888539375, 0.009678676724951957, -0.21803474427436575, -0.011462917552011837)",-2.6945935713646936,depth,0,0,1.3650000000000009
20190731_211445,-0.43951198383500645,0.026389925560181198,-0.029498072410003216,0.0,0.0,0.0,0.0,0.0,0.0,-119.2084911488863,35.48434305810306,-69.5788219565684,"(0.9758019924694412, 0.0096610905626269, -0.21813872555032898, -0.011516563597165816)",-2.6988284851524305,depth,0,0,1.2900000000000014
20190731_211445,-0.43971528435111146,0.026377599505685495,-0.02959993611071486,0.0,0.0,0.0,0.0,0.0,0.0,-117.49057515938954,35.48434305810306,-69.01531270542347,"(0.9757793238827672, 0.009642206132847891, -0.21823832673076016, -0.011565971188770114)",-2.692318370163019,depth,0,0,1.2150000000000019
20190731_211445,-0.44009787791461785,0.026316670293565995,-0.029692794964416087,0.0,0.0,0.0,0.0,0.0,0.0,-120.64008780680024,36.389799445447395,-69.86057658214085,"(0.9757373855900847, 0.009599026293922952, -0.21842506344731913, -0.011614848861254343)",-2.6949744550182766,depth,0,0,1.1250000000000024
20190731_211445,-0.4410830794956645,0.02618992333701866,-0.029781142955783532,0.0,0.0,0.0,0.0,0.0,0.0,-116.91793649622393,37.89889342435461,-70.14233120771331,"(0.9756299501947064, 0.009518975385360643, -0.21890532862064688, -0.01166389695488451)",-2.6611433103795026,depth,0,0,1.050000000000003
20190731_211445,-0.44126151656267476,0.026059393674692122,-0.029875395969745058,0.0,0.0,0.0,0.0,0.0,0.0,-117.77689449097232,36.389799445447395,-70.42408583328577,"(0.9756105175551087, 0.009443430235729671, -0.21899204807554723, -0.011722736067705302)",-2.6800765411165743,depth,0,0,0.9750000000000032
20190731_211445,-0.4415963323054483,0.025982752127798693,-0.029909104813933055,0.0,0.0,0.0,0.0,0.0,0.0,-120.64008780680024,38.200712220136054,-74.93215984244513,"(0.9755740697108142, 0.009399434552120604, -0.21915506479620697, -0.011744901538549912)",-2.6636360881885657,depth,0,0,0.9000000000000031
20190731_211445,-0.44144714088249887,0.02606800068424243,-0.03004109595992362,0.0,0.0,0.0,0.0,0.0,0.0,-118.6358524857207,34.277067874977284,-70.14233120771331,"(0.9755892084609809, 0.009427860380727557, -0.21908342003602474, -0.011801137590806447)",-2.7066579921528424,depth,0,0,0.8250000000000031
20190731_211445,-0.4412439119082979,0.026135519240066712,-0.03014123360658928,0.0,0.0,0.0,0.0,0.0,0.0,-117.49057515938954,36.087980649665944,-72.95987746343792,"(0.9756105159567039, 0.009451610966767417, -0.2189851654519836, -0.011844218707635563)",-2.675445716753986,depth,0,0,0.750000000000003
20190731_211446,-0.44172991916783866,0.0261067802278205,-0.0302589637403742,0.0,0.0,0.0,0.0,0.0,0.0,-118.3495331541379,38.200712220136054,-70.42408583328577,"(0.9755568031457477, 0.009420420045196854, -0.219222599687645, -0.011900895277735541)",-2.6639089932426163,depth,0,0,0.6750000000000029
20190731_211446,-0.44220149777721923,0.026087087005396612,-0.030386127552949747,0.0,0.0,0.0,0.0,0.0,0.0,-118.3495331541379,38.200712220136054,-69.29706733099593,"(0.9755045106680224, 0.009392706673774728, -0.21945307954318732, -0.011961296196240504)",-2.6664736519241625,depth,0,0,0.5850000000000029
20190731_211446,-0.4423218674365904,0.02611931175886026,-0.030531650634084362,0.0,0.0,0.0,0.0,0.0,0.0,-117.77689449097232,35.182524262321614,-70.9875950844307,"(0.9754903004014293, 0.009391387928562877, -0.2195126610814256, -0.01202777121729746)",-2.6906393898210514,depth,0,0,0.5100000000000028
20190731_211446,-0.44244445668232,0.02612960952095309,-0.030554082668463513,0.0,0.0,0.0,0.0,0.0,0.0,-116.63161716464116,35.182524262321614,-68.73355807985102,"(0.9754766841627157, 0.00939285941531702, -0.21957261490406396, -0.012036595494961043)",-2.6908247534153023,depth,0,0,0.4350000000000027
20190731_211446,-0.44210429631164544,0.02613481192437182,-0.030701124482803294,0.0,0.0,0.0,0.0,0.0,0.0,-118.6358524857207,37.295255832791725,-68.45180345427856,"(0.9755130365894235, 0.009382287964897484, -0.21940743907336918, -0.01211048289258596)",-2.6791054606976594,depth,0,0,0.36000000000000265
20190731_211446,-0.4420398417509196,0.0261540160374857,-0.0308666497916585,0.0,0.0,0.0,0.0,0.0,0.0,-117.77689449097232,34.57888667075873,-72.11461358672054,"(0.9755189987291857, 0.009374073706944321, -0.21937689651686157, -0.01218963228215131)",-2.694383656656123,depth,0,0,0.2850000000000026
20190731_211446,-0.4417538091807532,0.026241738376549712,-0.031000250836396605,0.0,0.0,0.0,0.0,0.0,0.0,-116.63161716464116,36.389799445447395,-71.55110433557562,"(0.9755490787310276, 0.009404780344954216, -0.21923855510031445, -0.012247491630248686)",-2.671349296824449,depth,0,0,0.21000000000000252
20190731_211446,-0.44226709368901185,0.02620192848496375,-0.03111734981391694,0.0,0.0,0.0,0.0,0.0,0.0,-118.3495331541379,36.993437037010274,-69.86057658214085,"(0.9754923507211681, 0.009367893449616865, -0.21948919723864058, -0.012304818257235955)",-2.677252665231445,depth,0,0,0.12000000000000245
20190731_211446,-0.44279652165666283,0.026151934895078426,-0.031138364077088268,0.0,0.0,0.0,0.0,0.0,0.0,-119.49481048046907,36.993437037010274,-72.11461358672054,"(0.9754344243523887, 0.00933642312881232, -0.21974718291239526, -0.01231627352531637)",-2.676725556873493,depth,0,0,0.045000000000002455
20190731_211447,-0.4438919471546805,0.026095348440577735,-0.03130876227217537,0.0,0.0,0.0,0.0,0.0,0.0,-116.63161716464116,35.182524262321614,-67.60653957756118,"(0.9753133481014732, 0.009280168445715314, -0.22028180198362848, -0.012396741650897056)",-2.6928094536229983,depth,0,0,-0.029999999999997543
20190731_211447,-0.4459305683475713,0.02601292610460582,-0.03147438985077871,0.0,0.0,0.0,0.0,0.0,0.0,-116.63161716464116,36.389799445447395,-71.55110433557562,"(0.9750880635480644, 0.009203163906182317, -0.22127599546746257, -0.01247012149441006)",-2.6689358697578416,depth,0,0,-0.10499999999999754
20190731_211447,-0.44760737839507636,0.026000804429792107,-0.03169114308651556,0.0,0.0,0.0,0.0,0.0,0.0,-118.9221718173035,35.78616185388451,-70.9875950844307,"(0.9749012364531972, 0.009157905353775806, -0.22209427875059257, -0.01256356946942908)",-2.686598062058017,depth,0,0,-0.19499999999999756
20190731_211447,-0.4475797160930329,0.02604752107874439,-0.031806456075993673,0.0,0.0,0.0,0.0,0.0,0.0,-117.20425582780673,36.993437037010274,-71.55110433557562,"(0.9749033627327337, 0.00916812661968996, -0.22208161836748352, -0.01261481549499696)",-2.6643633483742506,depth,0,0,-0.26999999999999763
20190731_211447,-0.4463712726170708,0.02608231265033354,-0.03195809189397265,0.0,0.0,0.0,0.0,0.0,0.0,-118.06321382255513,37.295255832791725,-71.26934971000315,"(0.9750360077612809, 0.00917940772578223, -0.22149349178431876, -0.012694689438398493)",-2.6668547750196914,depth,0,0,-0.3449999999999977
20190731_211447,-0.4457620553168854,0.026149118184007395,-0.032100844353545446,0.0,0.0,0.0,0.0,0.0,0.0,-118.9221718173035,37.59707462857317,-72.11461358672054,"(0.9751020918060072, 0.009201815357486145, -0.22119758664223768, -0.012761849917846058)",-2.666036632655422,depth,0,0,-0.41999999999999776
20190731_211447,-0.44529421677163566,0.026213843513927384,-0.03224147531223625,0.0,0.0,0.0,0.0,0.0,0.0,-117.77689449097232,35.182524262321614,-67.60653957756118,"(0.9751525137867485, 0.009222173130518865, -0.22097056914291646, -0.012827078809760944)",-2.6971738117914406,depth,0,0,-0.49499999999999783
