time,roll,pitch,yaw,accel_x,accel_y,accel_z,gyro_x,gyro_y,gyro_z,mag_x,mag_y,mag_z,quat,head,depth,distance,switch,duty
20190731_213134,-0.0043746411442611675,0.015267941525795333,-0.000158777045554809,0.0,0.0,0.0,0.0,0.0,0.0,-43.04754894786365,-22.464865731934115,-134.38238583823417,"(0.9999684674461641, 0.007633704686282092, -0.0021878611279668317, -6.268825377195768e-05)",2.6934827782952286,depth,0,0,0
20190731_213134,-0.014289880159438585,0.015263131756694642,-0.00047983605125508316,0.0,0.0,0.0,0.0,0.0,0.0,-41.32963295836691,-21.25759054880834,-134.94589508937912,"(0.999945339813, 0.007629582651809391, -0.007146501907483979, -0.00018537882699425719)",2.6881682284043054,depth,0,0,0
20190731_213134,-0.024005698388570546,0.015297093836511741,-0.0007991479802211325,0.0,0.0,0.0,0.0,0.0,0.0,-43.04754894786365,-22.464865731934115,-134.38238583823417,"(0.9998986756448078, 0.007643125018558294, -0.012005264868608864, -0.0003077322616605789)",2.6678296613566275,depth,0,0,0
20190731_213134,-0.03351981249653926,0.015280973837748513,-0.0011209102033572786,0.0,0.0,0.0,0.0,0.0,0.0,-45.051784268943194,-22.16304693615267,-134.66414046380666,"(0.9998302865160144, 0.007629945870903293, -0.01676291133481044, -0.0004323134196908881)",2.680883503653568,depth,0,0,0
20190731_213134,-0.042889720552215,0.015367755076956934,-0.0013936416598908452,0.0,0.0,0.0,0.0,0.0,0.0,-41.90227162153249,-19.446677774119678,-134.38238583823417,"(0.9997404258372434, 0.007667091670567425, -0.02144793140364571, -0.0005318745967579836)",2.6928071906270086,depth,0,0,0
20190731_213135,-0.052095694559321074,0.01545550148659181,-0.0016862646147928692,0.0,0.0,0.0,0.0,0.0,0.0,-41.04331362678411,-20.9557717530269,-136.35466821724143,"(0.9996307396080014, 0.007703091015556293, -0.02605062815498801, -0.0006415545938445625)",2.6338510909528505,depth,0,0,0
20190731_213135,-0.06102974106015686,0.015554193031455546,-0.0019858960062462652,0.0,0.0,0.0,0.0,0.0,0.0,-44.47914560577761,-22.16304693615267,-134.66414046380666,"(0.9995039729565236, 0.0077430996972967705, -0.030516915926714263, -0.0007551778100968648)",2.6350148686583514,depth,0,0,0
20190731_213135,-0.0698286813305369,0.01561395479820701,-0.002273405596874193,0.0,0.0,0.0,0.0,0.0,0.0,-43.04754894786365,-24.275778506622775,-133.81887658708928,"(0.9993597647386961, 0.007762457241369083, -0.03491502999031867, -0.000863458029622251)",2.5577984103045743,depth,0,0,0
20190731_213135,-0.07853168036464306,0.015654106400958257,-0.0025446640638561316,0.0,0.0,0.0,0.0,0.0,0.0,-42.47491028469807,-21.25759054880834,-133.81887658708928,"(0.9991981704900671, 0.007770989083826451, -0.039264467512628645, -0.0009640585623219926)",2.5996107103128234,depth,0,0,0
20190731_213135,-0.0870614075943451,0.015669036737467244,-0.0028289915367355934,0.0,0.0,0.0,0.0,0.0,0.0,-44.47914560577761,-20.9557717530269,-139.172214472966,"(0.9990215107329564, 0.007765456096632499, -0.043526649440592556, -0.0010721813878858154)",2.6135290353171703,depth,0,0,0
20190731_213135,-0.09550313862737474,0.015635389316720223,-0.0030768470664724566,0.0,0.0,0.0,0.0,0.0,0.0,-44.7654649373604,-20.653952957245455,-134.94589508937912,"(0.9988289793434851, 0.0077352626187479345, -0.047743922061379215, -0.0011634612446681564)",2.611849853024212,depth,0,0,0
20190731_213135,-0.10360633224470969,0.015765273367795794,-0.003272273522182189,0.0,0.0,0.0,0.0,0.0,0.0,-42.47491028469807,-21.86122814037123,-135.50940434052404,"(0.9986268210531374, 0.00778725370280269, -0.051791201313402015, -0.0012257322661403667)",2.531267703065489,depth,0,0,0
20190731_213135,-0.11157478306247628,0.01588627728208169,-0.003573230129728946,0.0,0.0,0.0,0.0,0.0,0.0,-41.615952289949696,-21.559409344589785,-134.10063121266174,"(0.9984119873467586, 0.0078310696364117, -0.0557707799284965, -0.0013408865772098232)",2.5070236399503814,depth,0,0,0
20190731_213135,-0.1194351218912309,0.01597683823971763,-0.0038144859371585906,0.0,0.0,0.0,0.0,0.0,0.0,-41.32963295836691,-23.67214091505989,-133.25536733594436,"(0.9981846797344766, 0.007860255425509423, -0.05969526896483698, -0.0014270218085321174)",2.4326588219191922,depth,0,0,0
20190731_213136,-0.1271704023694497,0.016103135923003623,-0.004049124054911355,0.0,0.0,0.0,0.0,0.0,0.0,-41.615952289949696,-23.973959710841335,-134.10063121266174,"(0.9979457844805099, 0.007906552403288778, -0.06355644109885657, -0.0015087947247739944)",2.4085811633218586,depth,0,0,0
20190731_213136,-0.13467141271304173,0.016250768513872468,-0.004328303875815196,0.0,0.0,0.0,0.0,0.0,0.0,-40.18435563203573,-21.86122814037123,-132.69185808479943,"(0.9976997186047122, 0.007961252701727895, -0.06729999927523708, -0.0016124667594663205)",2.410322070947542,depth,0,0,0
20190731_213136,-0.14211006182624092,0.016318086165323806,-0.0045603950517149,0.0,0.0,0.0,0.0,0.0,0.0,-43.62018761102924,-21.86122814037123,-132.1283488336545,"(0.9974421801936653, 0.007976465857742154, -0.07101126480155932, -0.0016951207069891656)",2.4626883554838277,depth,0,0,0
20190731_213136,-0.14935216960794445,0.016328467193674843,-0.004857910385687663,0.0,0.0,0.0,0.0,0.0,0.0,-43.62018761102924,-21.25759054880834,-134.94589508937912,"(0.9971783402648204, 0.007960155605743782, -0.0746237672816075, -0.001813004724561563)",2.449947743409184,depth,0,0,0
20190731_213136,-0.15659567746633327,0.01643295872755015,-0.005151412823261903,0.0,0.0,0.0,0.0,0.0,0.0,-41.04331362678411,-22.16304693615267,-133.53712196151682,"(0.9969009866971545, 0.007989727890515661, -0.0782360602026683, -0.0019250595938607562)",2.348507954830733,depth,0,0,0
20190731_213136,-0.16344797842893385,0.016594991298054588,-0.005435021954383919,0.0,0.0,0.0,0.0,0.0,0.0,-42.47491028469807,-21.86122814037123,-132.69185808479943,"(0.9966263045584934, 0.008047846139182128, -0.081652411191269, -0.0020310049859546633)",2.371341539093913,depth,0,0,0
20190731_213136,-0.17038478473810753,0.016541725187449355,-0.005655952990425556,0.0,0.0,0.0,0.0,0.0,0.0,-43.62018761102924,-21.25759054880834,-133.25536733594436,"(0.9963372491652275, 0.008000117720924321, -0.08510943309859585, -0.0021138684809048807)",2.3888460147453254,depth,0,0,0
20190731_213136,-0.1771314147655537,0.016585767393154392,-0.005872870068311927,0.0,0.0,0.0,0.0,0.0,0.0,-42.47491028469807,-22.464865731934115,-132.69185808479943,"(0.9960442292668228, 0.008000532161561285, -0.08847080260250259, -0.002191327511275911)",2.3071917659360577,depth,0,0,0
20190731_213136,-0.18371929658101094,0.016662107020851174,-0.00612047562452338,0.0,0.0,0.0,0.0,0.0,0.0,-45.051784268943194,-23.973959710841335,-135.22764971495155,"(0.9957469877769248, 0.00801508687360192, -0.0917522888543183, -0.0022830255327433054)",2.3029459703748834,depth,0,0,0
20190731_213137,-0.19012604247255188,0.016827976982315123,-0.006422063937371139,0.0,0.0,0.0,0.0,0.0,0.0,-41.90227162153249,-22.464865731934115,-132.1283488336545,"(0.9954471077641908, 0.008071077050084337, -0.0949429515026384, -0.0023977737855537607)",2.2430820581637145,depth,0,0,0
20190731_213137,-0.19641356017962094,0.016938833386672916,-0.006728376693923423,0.0,0.0,0.0,0.0,0.0,0.0,-44.19282627419482,-21.86122814037123,-133.25536733594436,"(0.9951430584208037, 0.0080986162624086, -0.09807327945662529, -0.002517448737486269)",2.2930403454612165,depth,0,0,0
20190731_213137,-0.2026876741835148,0.017067942717616646,-0.006995508682777071,0.0,0.0,0.0,0.0,0.0,0.0,-43.33386827944644,-23.370322119278445,-135.22764971495155,"(0.9948298140963456, 0.008136173703809044, -0.10119584287916156, -0.0026163039708361237)",2.194390932782021,depth,0,0,0
20190731_213137,-0.20870509093056053,0.01720982648722474,-0.007244146424130118,0.0,0.0,0.0,0.0,0.0,0.0,-44.47914560577761,-22.16304693615267,-134.10063121266174,"(0.9945201142298509, 0.008180670436043664, -0.10418971622660955, -0.0027059297994942336)",2.2385156511198643,depth,0,0,0
20190731_213137,-0.21463959727095877,0.017295382606488573,-0.007518086087757917,0.0,0.0,0.0,0.0,0.0,0.0,-42.18859095311528,-18.541221386775348,-134.66414046380666,"(0.994206037218483, 0.00819514132909305, -0.1071414649320725, -0.0028109978880108116)",2.226678560199973,depth,0,0,0
20190731_213137,-0.22053137954846777,0.017300906557273323,-0.00774242540593236,0.0,0.0,0.0,0.0,0.0,0.0,-40.75699429520131,-23.068503323497005,-134.38238583823417,"(0.9938859458567205, 0.008171766060100345, -0.11007072304212782, -0.0028956513834302706)",2.031392065484902,depth,0,0,0
20190731_213138,-0.22633065605313546,0.017390336134231455,-0.008079478676354253,0.0,0.0,0.0,0.0,0.0,0.0,-41.32963295836691,-19.446677774119678,-135.50940434052404,"(0.9935619331931754, 0.008183206426994513, -0.11295365349596495, -0.0030318647606118665)",2.091324955337515,depth,0,0,0
20190731_213138,-0.2319851842089444,0.017498585290853037,-0.00828757866799451,0.0,0.0,0.0,0.0,0.0,0.0,-43.33386827944644,-23.973959710841335,-135.7911589660965,"(0.9932380490682585, 0.008210763331168732, -0.11576325533776421, -0.0031032180398262105)",2.0368305957159083,depth,0,0,0
20190731_213138,-0.2375462142879955,0.01757661526015523,-0.008490259586786052,0.0,0.0,0.0,0.0,0.0,0.0,-43.04754894786365,-21.25759054880834,-137.7634413451037,"(0.992911891711192, 0.008223199283077519, -0.11852544821936144, -0.00317370705210457)",2.0310825439264555,depth,0,0,0
20190731_213138,-0.24298345788293182,0.017569584560186754,-0.008758273220222617,0.0,0.0,0.0,0.0,0.0,0.0,-43.62018761102924,-21.86122814037123,-135.50940434052404,"(0.9925857963492595, 0.008189144540066211, -0.12122542218552014, -0.0032820440811818334)",2.03071504843266,depth,0,0,0
20190731_213138,-0.24824212280092375,0.01766770561640783,-0.009013269506903782,0.0,0.0,0.0,0.0,0.0,0.0,-43.62018761102924,-21.86122814037123,-133.25536733594436,"(0.9922629996194733, 0.008207780302081403, -0.12383602083434285, -0.0033781463251756332)",2.0220863047129956,depth,0,0,0
20190731_213138,-0.2534218177815495,0.01773766335164615,-0.009247614946646698,0.0,0.0,0.0,0.0,0.0,0.0,-40.47067496361852,-21.559409344589785,-135.7911589660965,"(0.9919384739951069, 0.00821322481588274, -0.12640646744413367, -0.003465794956102347)",1.8282874884949598,depth,0,0,0
20190731_213138,-0.25860605936727105,0.01783069936830261,-0.009490502408992891,0.0,0.0,0.0,0.0,0.0,0.0,-40.47067496361852,-21.559409344589785,-132.9736127103719,"(0.9916068849809625, 0.008228867309890123, -0.12897839762094437, -0.0035558892392947555)",1.827025004750844,depth,0,0,0
20190731_213138,-0.2636236314824745,0.017928430757214692,-0.009732534813352395,0.0,0.0,0.0,0.0,0.0,0.0,-43.906506942612026,-20.352134161464008,-134.66414046380666,"(0.9912795595172065, 0.008246682579094047, -0.13146686266281823, -0.003645700400262703)",1.9530052998693253,depth,0,0,0
20190731_213138,-0.26851481974294217,0.018058036613070275,-0.009973622361183281,0.0,0.0,0.0,0.0,0.0,0.0,-40.18435563203573,-21.86122814037123,-134.94589508937912,"(0.9909543140265363, 0.008280056525973042, -0.13389194007202496, -0.003733170217515024)",1.7162220432684443,depth,0,0,0
20190731_213138,-0.273771048518509,0.018194717059754277,-0.010222427846629736,0.0,0.0,0.0,0.0,0.0,0.0,-41.32963295836691,-24.275778506622775,-136.07291359166894,"(0.9905982085350358, 0.008314581582310061, -0.1364970727835571, -0.003821793009746686)",1.7025257402613867,depth,0,0,0
20190731_213138,-0.2783052782897284,0.01831909227513931,-0.0104946991200979,0.0,0.0,0.0,0.0,0.0,0.0,-44.19282627419482,-21.86122814037123,-132.69185808479943,"(0.9902853739966678, 0.00834296271013269, -0.13874386434049624, -0.0039259558534543)",1.867272543824542,depth,0,0,0
20190731_213138,-0.28291841623994446,0.01831951061786152,-0.010678185113192433,0.0,0.0,0.0,0.0,0.0,0.0,-41.90227162153249,-22.464865731934115,-134.38238583823417,"(0.989962573265969, 0.008315293111398041, -0.14102838828532013, -0.003994137045378357)",1.7007521415694726,depth,0,0,0
20190731_213139,-0.2874543057793571,0.01837745189257111,-0.010924765014794733,0.0,0.0,0.0,0.0,0.0,0.0,-42.18859095311528,-20.9557717530269,-132.9736127103719,"(0.9896396649983685, 0.00831136199793373, -0.1432743136351465, -0.004089715886730334)",1.713277400940639,depth,0,0,0
20190731_213139,-0.29185371976208474,0.018473276549054687,-0.011151993832887048,0.0,0.0,0.0,0.0,0.0,0.0,-41.32963295836691,-21.25759054880834,-133.81887658708928,"(0.9893214615721164, 0.008327431042891869, -0.14545199270509085, -0.004173413849073687)",1.6225035808750772,depth,0,0,0
20190731_213139,-0.29616987916415544,0.018634523517880152,-0.011395586325845503,0.0,0.0,0.0,0.0,0.0,0.0,-43.33386827944644,-20.352134161464008,-132.9736127103719,"(0.9890042959843575, 0.00837436970097849, -0.14758800990631102, -0.004260491578623928)",1.7116350773987314,depth,0,0,0
20190731_213139,-0.30042791992210255,0.018697864305101206,-0.011680260160015625,0.0,0.0,0.0,0.0,0.0,0.0,-42.47491028469807,-21.86122814037123,-132.69185808479943,"(0.9886871825103966, 0.008369431828688913, -0.14969457775048706, -0.004375059156431825)",1.6321851586036527,depth,0,0,0
20190731_213139,-0.3045233605474711,0.01878700273050083,-0.011869584737648648,0.0,0.0,0.0,0.0,0.0,0.0,-43.33386827944644,-24.57759730240422,-134.10063121266174,"(0.988378008996389, 0.008384414942054748, -0.15171977213986407, -0.004441132765562424)",1.6161174823913824,depth,0,0,0
20190731_213139,-0.30867617017705956,0.018847665597739163,-0.012145464033367808,0.0,0.0,0.0,0.0,0.0,0.0,-41.90227162153249,-24.275778506622775,-134.94589508937912,"(0.9880602029602729, 0.008378016758868977, -0.15377297245870608, -0.0045516043882067635)",1.515343436360102,depth,0,0,0
20190731_213139,-0.3126738201397714,0.018920060332988438,-0.01232334285468246,0.0,0.0,0.0,0.0,0.0,0.0,-41.90227162153249,-20.653952957245455,-133.25536733594436,"(0.9877503803927055, 0.008385012850497052, -0.15574849849382247, -0.00461332965250541)",1.5029377737250973,depth,0,0,0
20190731_213139,-0.3166034531228462,0.019020172308074564,-0.012581879241976164,0.0,0.0,0.0,0.0,0.0,0.0,-40.18435563203573,-23.67214091505989,-135.50940434052404,"(0.9874416618416235, 0.008399187579908879, -0.15769022596346835, -0.004712827499589202)",1.377193332198378,depth,0,0,0
20190731_213139,-0.3204735877857639,0.019080155728141788,-0.012820360721484103,0.0,0.0,0.0,0.0,0.0,0.0,-42.47491028469807,-23.068503323497005,-134.94589508937912,"(0.9871340828239298, 0.008394825269283578, -0.15960180194973647, -0.0048056477663751705)",1.457630633583201,depth,0,0,0
20190731_213140,-0.32419731321455175,0.019185889904416626,-0.01306780528960165,0.0,0.0,0.0,0.0,0.0,0.0,-43.62018761102924,-21.86122814037123,-133.81887658708928,"(0.9868343971103738, 0.008412392806328958, -0.1614406909091594, -0.004899759774759629)",1.4980566758893343,depth,0,0,0
20190731_213140,-0.3279221750189233,0.01916908956458116,-0.013308633927112425,0.0,0.0,0.0,0.0,0.0,0.0,-41.615952289949696,-21.559409344589785,-134.66414046380666,"(0.9865317196156113, 0.008369537994241037, -0.16327925104966046, -0.005000320258741014)",1.3580403069709321,depth,0,0,0
20190731_213140,-0.331593570651321,0.019189052557874824,-0.013557367243633217,0.0,0.0,0.0,0.0,0.0,0.0,-42.18859095311528,-22.16304693615267,-135.22764971495155,"(0.9862298469018562, 0.008343913589999998, -0.16509099951856893, -0.005101966670179259)",1.3562341595148328,depth,0,0,0
20190731_213140,-0.33508196192609613,0.019280807341415296,-0.013796662381214502,0.0,0.0,0.0,0.0,0.0,0.0,-44.47914560577761,-20.9557717530269,-134.10063121266174,"(0.9859396221036856, 0.008354752318140772, -0.16681212174073423, -0.0051938155626327)",1.4506237700035576,depth,0,0,0
20190731_213140,-0.3384602981971323,0.019328504077956474,-0.014004072136756725,0.0,0.0,0.0,0.0,0.0,0.0,-40.47067496361852,-22.16304693615267,-135.22764971495155,"(0.9856559226206396, 0.008346570649324085, -0.1684782531687363, -0.005274008955500748)",1.2332714010343293,depth,0,0,0
20190731_213140,-0.34191591465827054,0.019385147713870787,-0.014273366109915487,0.0,0.0,0.0,0.0,0.0,0.0,-44.7654649373604,-24.275778506622775,-136.07291359166894,"(0.9853626316084789, 0.008336814115406186, -0.17018225871984105, -0.0053833611277204945)",1.4059314334970658,depth,0,0,0
20190731_213140,-0.34576689300820546,0.019439814188866318,-0.014512766351371366,0.0,0.0,0.0,0.0,0.0,0.0,-43.906506942612026,-19.144858978338235,-134.10063121266174,"(0.9850325074044229, 0.008326409378308131, -0.17208034625295063, -0.005475828419952848)",1.3187077219367032,depth,0,0,0
20190731_213140,-0.3490345141177094,0.019502438749887593,-0.01474414838574679,0.0,0.0,0.0,0.0,0.0,0.0,-41.32963295836691,-24.87941609818567,-134.38238583823417,"(0.98474937501184, 0.008322728790772865, -0.17369056757789245, -0.005566626782490018)",1.2547549841673675,depth,0,0,0
20190731_213140,-0.3521637750849607,0.01949386863231777,-0.014940719428681913,0.0,0.0,0.0,0.0,0.0,0.0,-44.7654649373604,-20.653952957245455,-134.94589508937912,"(0.9844761150498129, 0.008287269617838449, -0.1752318757619059, -0.005647103299285397)",1.317799840901128,depth,0,0,0
20190731_213141,-0.3555464641337232,0.01954430046750788,-0.015188463625822693,0.0,0.0,0.0,0.0,0.0,0.0,-41.90227162153249,-20.05031536568257,-133.25536733594436,"(0.9841776589599324, 0.008274835531822958, -0.17689783772545734, -0.005746103821399766)",1.1777195453204428,depth,0,0,0
20190731_213141,-0.3585924493495527,0.019599904269837518,-0.015366901679586696,0.0,0.0,0.0,0.0,0.0,0.0,-42.761229616280865,-20.9557717530269,-134.10063121266174,"(0.9839065813502823, 0.008272249246159439, -0.17839738528609606, -0.005812227722157165)",1.198412299720737,depth,0,0,0
20190731_213141,-0.3615620601825838,0.01967301329623465,-0.01554835568763019,0.0,0.0,0.0,0.0,0.0,0.0,-42.761229616280865,-22.16304693615267,-134.66414046380666,"(0.9836399996408067, 0.008278058836915575, -0.17985902157190903, -0.005878537889809266)",1.1911681462626944,depth,0,0,0
20190731_213141,-0.3644004072054587,0.019716957040657738,-0.01578953680240366,0.0,0.0,0.0,0.0,0.0,0.0,-44.7654649373604,-21.86122814037123,-137.7634413451037,"(0.9833830760250309, 0.008264437315827667, -0.18125588349291835, -0.00597742106619369)",1.201188845901912,depth,0,0,0
20190731_213141,-0.3674778514870123,0.019741954710257918,-0.01596749732549681,0.0,0.0,0.0,0.0,0.0,0.0,-42.18859095311528,-22.76668452771556,-135.22764971495155,"(0.9831026078546476, 0.008245757775790197, -0.18276958714867209, -0.0060454877055464195)",1.1347533490184065,depth,0,0,0
20190731_213141,-0.3706986619337176,0.019753593853346563,-0.016184933107511786,0.0,0.0,0.0,0.0,0.0,0.0,-42.47491028469807,-20.653952957245455,-134.94589508937912,"(0.9828065407352633, 0.00821588001902548, -0.18435342604435537, -0.006133278830027452)",1.0876520586362717,depth,0,0,0
20190731_213141,-0.37340816358203743,0.019760119032036155,-0.01640115515151546,0.0,0.0,0.0,0.0,0.0,0.0,-42.47491028469807,-21.86122814037123,-135.50940434052404,"(0.9825554049300779, 0.008185762909479819, -0.1856855805383664, -0.006223721427762897)",1.0888482081394402,depth,0,0,0
20190731_213141,-0.3761379416690115,0.01975794632433513,-0.01660099447959717,0.0,0.0,0.0,0.0,0.0,0.0,-41.90227162153249,-21.25759054880834,-133.81887658708928,"(0.9823006505187272, 0.008152499788810228, -0.18702725400078415, -0.006306742313217111)",1.0641518959914724,depth,0,0,0
20190731_213141,-0.3787057384351954,0.019726279141437684,-0.016816731060642034,0.0,0.0,0.0,0.0,0.0,0.0,-43.906506942612026,-23.370322119278445,-134.66414046380666,"(0.9820593678115515, 0.00810379348595573, -0.18828900994279005, -0.006401199846672221)",1.1546369572514583,depth,0,0,0
20190731_213142,-0.3811409340397778,0.01987324221068195,-0.017025788348157034,0.0,0.0,0.0,0.0,0.0,0.0,-42.761229616280865,-21.559409344589785,-134.10063121266174,"(0.98182830914574, 0.008143812414252754, -0.189485906536487, -0.006476179693652316)",1.0699937704564064,depth,0,0,0
20190731_213142,-0.3836798859723306,0.01985348229976641,-0.017261145254429257,0.0,0.0,0.0,0.0,0.0,0.0,-42.18859095311528,-19.748496569901125,-136.35466821724143,"(0.9815864939961603, 0.00809866282687207, -0.19073301078604038, -0.006579138335302396)",0.95490914310617,depth,0,0,0
20190731_213142,-0.3861058590246121,0.019866816632123033,-0.017390952447262412,0.0,0.0,0.0,0.0,0.0,0.0,-43.04754894786365,-21.86122814037123,-134.38238583823417,"(0.9813541373518622, 0.008080171416800381, -0.19192405034653018, -0.006627731952957181)",1.0549134154690536,depth,0,0,0
20190731_213142,-0.3884423090070714,0.019871536124746157,-0.017572899266274717,0.0,0.0,0.0,0.0,0.0,0.0,-40.75699429520131,-21.25759054880834,-136.07291359166894,"(0.9811288305439597, 0.008052721612629082, -0.19307107182255615, -0.00670319143101949)",0.925426287315786,depth,0,0,0
20190731_213142,-0.39077122914150825,0.019915542931899625,-0.017703003507405383,0.0,0.0,0.0,0.0,0.0,0.0,-41.32963295836691,-22.464865731934115,-131.00133033136467,"(0.9809029271970282, 0.00804939399805117, -0.19421405796396365, -0.00674939713869416)",1.032820078444778,depth,0,0,0.06
20190731_213142,-0.3931127111641734,0.019864046237187044,-0.01788373176139516,0.0,0.0,0.0,0.0,0.0,0.0,-43.04754894786365,-21.25759054880834,-132.69185808479943,"(0.9806746765720005, 0.007994055747781089, -0.19536281749105752, -0.006829593330446794)",1.028530611514237,depth,0,0,0.135
20190731_213142,-0.39537930351587586,0.019892206906092936,-0.0180537195556207,0.0,0.0,0.0,0.0,0.0,0.0,-41.90227162153249,-21.86122814037123,-135.50940434052404,"(0.9804521451732816, 0.007979020474090772, -0.19647482218267212, -0.006897137498400376)",0.9507748651301385,depth,0,0,0.21000000000000008
20190731_213142,-0.39760454020054725,0.01987342479707467,-0.01826458073023682,0.0,0.0,0.0,0.0,0.0,0.0,-39.89803630045294,-21.559409344589785,-136.91817746838632,"(0.980232476071013, 0.007936960084722243, -0.19756630338709422, -0.006989512591229432)",0.8548006018902984,depth,0,0,0.28500000000000014
20190731_213142,-0.39973881814473516,0.019948194221573446,-0.01847694107139385,0.0,0.0,0.0,0.0,0.0,0.0,-42.18859095311528,-22.16304693615267,-134.10063121266174,"(0.980020234580821, 0.007940857665433752, -0.19861330170660174, -0.007073823357451137)",0.9652743974460998,depth,0,0,0.3600000000000002
20190731_213143,-0.40175381217494566,0.020063748148634868,-0.01868750102291236,0.0,0.0,0.0,0.0,0.0,0.0,-42.47491028469807,-24.275778506622775,-133.81887658708928,"(0.9798186093840273, 0.00796533375849117, -0.1996017787281381, -0.007153746670812928)",1.014757612807661,depth,0,0,0.4350000000000003
20190731_213143,-0.40368060298086056,0.02026846209079854,-0.01890372865978339,0.0,0.0,0.0,0.0,0.0,0.0,-41.90227162153249,-20.653952957245455,-134.38238583823417,"(0.9796244412039192, 0.00803317129102787, -0.20054720236315346, -0.007227861317881184)",0.8938621383883161,depth,0,0,0.5100000000000003
20190731_213143,-0.4055299999324328,0.02040941881629493,-0.01914743769203299,0.0,0.0,0.0,0.0,0.0,0.0,-41.32963295836691,-21.86122814037123,-133.81887658708928,"(0.9794372974449636, 0.008067208344188654, -0.20145443086686593, -0.007322076709834197)",0.9063653428296783,depth,0,0,0.6000000000000004
20190731_213143,-0.4076770484983742,0.020481632225240205,-0.01938361680154254,0.0,0.0,0.0,0.0,0.0,0.0,-43.04754894786365,-21.25759054880834,-132.1283488336545,"(0.9792195117525941, 0.008066373874508566, -0.20250693981229573, -0.007417596874121174)",0.9584422369156206,depth,0,0,0.6750000000000005
20190731_213143,-0.40955692610522654,0.02058630121051467,-0.019546928825455973,0.0,0.0,0.0,0.0,0.0,0.0,-41.32963295836691,-21.25759054880834,-131.5648395825096,"(0.9790278877130694, 0.008090127258722499, -0.20342826748192336, -0.007475621066275656)",0.9024928596433981,depth,0,0,0.7500000000000006
20190731_213143,-0.4113688835870298,0.020639425889668682,-0.01976020836163886,0.0,0.0,0.0,0.0,0.0,0.0,-43.33386827944644,-22.16304693615267,-134.66414046380666,"(0.9788423467518662, 0.00808377098145815, -0.20431618668166626, -0.007563644087435879)",0.9350759461994428,depth,0,0,0.8250000000000006
20190731_213143,-0.4133307165095018,0.020616105246565576,-0.01989256062704393,0.0,0.0,0.0,0.0,0.0,0.0,-39.89803630045294,-22.76668452771556,-131.28308495693713,"(0.9786412465697899, 0.008047217496554123, -0.20527665486395502, -0.00761890876409968)",0.8862172803650166,depth,0,0,0.9000000000000007
20190731_213143,-0.41509199394275964,0.02054298591269495,-0.020086953401564047,0.0,0.0,0.0,0.0,0.0,0.0,-43.04754894786365,-23.068503323497005,-133.25536733594436,"(0.9784598175943745, 0.007980971591471816, -0.20613886587595426, -0.007710863830638054)",0.9503042592513319,depth,0,0,0.9750000000000008
20190731_213143,-0.4171350218158258,0.02056134979463344,-0.020322521977158697,0.0,0.0,0.0,0.0,0.0,0.0,-45.051784268943194,-23.973959710841335,-135.22764971495155,"(0.9782479530999055, 0.007953351359645946, -0.20713923395714906, -0.007811799641599439)",0.9939809554793513,depth,0,0,1.0500000000000005
20190731_213144,-0.4191631241313746,0.020484634887377614,-0.020521978280901566,0.0,0.0,0.0,0.0,0.0,0.0,-43.04754894786365,-22.464865731934115,-135.50940434052404,"(0.9780371280514437, 0.007882837204726672, -0.20813156474414266, -0.007904984986869673)",0.8880834449558941,depth,0,0,1.125
20190731_213144,-0.42092227377033803,0.020509588228932465,-0.02068455370099579,0.0,0.0,0.0,0.0,0.0,0.0,-41.90227162153249,-22.464865731934115,-132.69185808479943,"(0.977853120267845, 0.007867344654800462, -0.2089924411769538, -0.007971173152027562)",0.8850564815567308,depth,0,0,1.2149999999999994
20190731_213144,-0.4224359416430416,0.02053325892428374,-0.02088516591687492,0.0,0.0,0.0,0.0,0.0,0.0,-39.039078305704564,-24.275778506622775,-133.25536733594436,"(0.9776939282709399, 0.007848600855878473, -0.20973330267609375, -0.008057532830916349)",0.8421829513506075,depth,0,0,1.274999999999999
20190731_213144,-0.42434133681723435,0.02062961889461053,-0.02112160202004495,0.0,0.0,0.0,0.0,0.0,0.0,-40.18435563203573,-23.67214091505989,-133.81887658708928,"(0.9774925364156795, 0.00785901118067909, -0.21066592913067958, -0.008151288144269929)",0.8419884612861009,depth,0,0,1.3649999999999984
20190731_213144,-0.4259790421509776,0.020676345844693068,-0.021291453659447634,0.0,0.0,0.0,0.0,0.0,0.0,-39.61171696887015,-24.87941609818567,-132.69185808479943,"(0.9773190006108695, 0.0078536514143857, -0.21146710110683148, -0.008219267236532582)",0.8624362061972422,depth,0,0,1.439999999999998
20190731_213144,-0.42770625809356516,0.020769873585759456,-0.021537917204194706,0.0,0.0,0.0,0.0,0.0,0.0,-41.90227162153249,-20.05031536568257,-137.7634413451037,"(0.9771348117158917, 0.007862307131483158, -0.21231235657407718, -0.00831908080747254)",0.7307215464968007,depth,0,0,1.5
20190731_213144,-0.4292531209004928,0.020795021696505787,-0.02176692942828781,0.0,0.0,0.0,0.0,0.0,0.0,-43.33386827944644,-22.16304693615267,-133.53712196151682,"(0.9769694230787093, 0.007840348402609295, -0.21306900666431364, -0.008418652223624158)",0.8699064874552926,depth,0,0,1.4250000000000005
20190731_213144,-0.430745993124715,0.020917376839695558,-0.021969368016041085,0.0,0.0,0.0,0.0,0.0,0.0,-42.18859095311528,-21.559409344589785,-133.53712196151682,"(0.9768089378158167, 0.00786887481500955, -0.21379946815802706, -0.008495129641548792)",0.8173487148920706,depth,0,0,1.350000000000001
20190731_213144,-0.43224834292497805,0.020935687279794925,-0.02218849359020676,0.0,0.0,0.0,0.0,0.0,0.0,-43.62018761102924,-21.25759054880834,-134.38238583823417,"(0.976647222696348, 0.007844570087639306, -0.2145340636808303, -0.008590729901441174)",0.8301090840173068,depth,0,0,1.2900000000000014
20190731_213145,-0.4336641148845371,0.020877171120412538,-0.022336525160150483,0.0,0.0,0.0,0.0,0.0,0.0,-43.33386827944644,-20.9557717530269,-131.84659420808205,"(0.9764948634374363, 0.007790808564383549, -0.2152256555432304, -0.008660379795518256)",0.8418803707096525,depth,0,0,1.2150000000000019
20190731_213145,-0.4350735470235496,0.02081806977392353,-0.022506535771469705,0.0,0.0,0.0,0.0,0.0,0.0,-41.32963295836691,-21.86122814037123,-133.81887658708928,"(0.976342598485269, 0.007734333161643959, -0.21591412080424302, -0.00874087586620796)",0.7845858644984012,depth,0,0,1.1250000000000024
20190731_213145,-0.43639157978383364,0.020843991327110893,-0.022684074112213015,0.0,0.0,0.0,0.0,0.0,0.0,-41.04331362678411,-21.559409344589785,-132.9736127103719,"(0.9761993672908112, 0.007719038987308009, -0.21655826554573598, -0.008816425690436098)",0.7748143096900174,depth,0,0,1.050000000000003
20190731_213145,-0.43780199410241344,0.020932364890171147,-0.02287667235050775,0.0,0.0,0.0,0.0,0.0,0.0,-42.47491028469807,-22.464865731934115,-133.81887658708928,"(0.9760453755104036, 0.007731845600971535, -0.21724773287503998, -0.008891910312925026)",0.8170993647781144,depth,0,0,0.9750000000000032
20190731_213145,-0.43901556740926495,0.021026739676980485,-0.02308051106840684,0.0,0.0,0.0,0.0,0.0,0.0,-41.90227162153249,-21.25759054880834,-133.25536733594436,"(0.9759122395791406, 0.007747539320500046, -0.21784112233885483, -0.008973388002946635)",0.7736797310667605,depth,0,0,0.9000000000000031
20190731_213145,-0.44033769197028877,0.021134664197603778,-0.023252128852820696,0.0,0.0,0.0,0.0,0.0,0.0,-42.761229616280865,-19.748496569901125,-131.84659420808205,"(0.97576698549164, 0.007772485724103703, -0.21848732973950996, -0.009036881847451363)",0.764489273923693,depth,0,0,0.8250000000000031
20190731_213145,-0.4415998446090997,0.021151733674138456,-0.023434243651566093,0.0,0.0,0.0,0.0,0.0,0.0,-42.47491028469807,-21.25759054880834,-132.1283488336545,"(0.9756281680230922, 0.007752244358368701, -0.21910381962348408, -0.009115738791413378)",0.7910965153940958,depth,0,0,0.750000000000003
20190731_213145,-0.4428920898844876,0.021190788841345495,-0.023682147993252765,0.0,0.0,0.0,0.0,0.0,0.0,-41.90227162153249,-23.068503323497005,-135.50940434052404,"(0.9754852654439259, 0.0077351722807429985, -0.21973525250371917, -0.009224034838809266)",0.7800237032158543,depth,0,0,0.6750000000000029
20190731_213145,-0.44389628949841076,0.02124693633639753,-0.02388630152804596,0.0,0.0,0.0,0.0,0.0,0.0,-41.90227162153249,-22.464865731934115,-134.38238583823417,"(0.9753737736738217, 0.007733105680553975, -0.22022603727949713, -0.009310918858593134)",0.7738558745910172,depth,0,0,0.6000000000000029
20190731_213146,-0.4451986627780543,0.021241657705081084,-0.024038672837961562,0.0,0.0,0.0,0.0,0.0,0.0,-42.18859095311528,-23.370322119278445,-133.53712196151682,"(0.9752296286061427, 0.007704595098256281, -0.22086166760653245, -0.009377338916693668)",0.8077587950645752,depth,0,0,0.5100000000000028
20190731_213146,-0.4463538183227948,0.02125425260602234,-0.024248348551638207,0.0,0.0,0.0,0.0,0.0,0.0,-43.906506942612026,-21.559409344589785,-134.10063121266174,"(0.9751010089620552, 0.007679396308570951, -0.22142573444917849, -0.009470655582367227)",0.7917521154738857,depth,0,0,0.4350000000000027
20190731_213146,-0.4475245134747273,0.02130887370183693,-0.024436724250257776,0.0,0.0,0.0,0.0,0.0,0.0,-43.62018761102924,-21.86122814037123,-134.38238583823417,"(0.9749702730729526, 0.00767681561670849, -0.22199741851618693, -0.009548785168191529)",0.7847960216737859,depth,0,0,0.36000000000000265
20190731_213146,-0.44874632134492826,0.02130387414877377,-0.024614333657787372,0.0,0.0,0.0,0.0,0.0,0.0,-42.761229616280865,-22.76668452771556,-134.10063121266174,"(0.9748337951420754, 0.007645888248879842, -0.2225936109558621, -0.009627907530417966)",0.7868435846303646,depth,0,0,0.2850000000000026
20190731_213146,-0.44974145759841866,0.021382144031420827,-0.024857958358791683,0.0,0.0,0.0,0.0,0.0,0.0,-43.04754894786365,-20.653952957245455,-136.6364228428139,"(0.9747215683119819, 0.007649710399345057, -0.22307991042754477, -0.00973138026569052)",0.7055478789328711,depth,0,0,0.21000000000000252
20190731_213146,-0.45095880505911823,0.021393628493997917,-0.025095281671148054,0.0,0.0,0.0,0.0,0.0,0.0,-43.33386827944644,-20.9557717530269,-134.66414046380666,"(0.9745845581708052, 0.007619938806833462, -0.2236740820118367, -0.009837710290442947)",0.7379801234342539,depth,0,0,0.13500000000000245
20190731_213146,-0.4518852865282999,0.021484373341229848,-0.02526323244910213,0.0,0.0,0.0,0.0,0.0,0.0,-42.47491028469807,-21.25759054880834,-131.5648395825096,"(0.9744797852347495, 0.007638558738442307, -0.22412658555553663, -0.009903243733883153)",0.7590441222717875,depth,0,0,0.060000000000002454
20190731_213146,-0.4530046483774504,0.021594250775391358,-0.025411651588002102,0.0,0.0,0.0,0.0,0.0,0.0,-42.761229616280865,-20.352134161464008,-133.53712196151682,"(0.9743531844621257, 0.007667178284471366, -0.224673027066291, -0.00995576288079638)",0.7134803099516575,depth,0,0,-0.029999999999997543
20190731_213146,-0.4540186414927563,0.021668805960868964,-0.025611814527906958,0.0,0.0,0.0,0.0,0.0,0.0,-42.47491028469807,-22.464865731934115,-135.50940434052404,"(0.9742380003770573, 0.007673453536198742, -0.22516810045812483, -0.01003809086532201)",0.738194855439497,depth,0,0,-0.10499999999999754
20190731_213147,-0.4549270118092957,0.021723359415467144,-0.02579359782003597,0.0,0.0,0.0,0.0,0.0,0.0,-43.04754894786365,-21.25759054880834,-133.25536733594436,"(0.974134629905758, 0.007672743874277, -0.22561150517123854, -0.010114373642480579)",0.7408350019151179,depth,0,0,-0.16499999999999754
20190731_213147,-0.4558711673960194,0.021768717488822878,-0.02598965144750447,0.0,0.0,0.0,0.0,0.0,0.0,-41.90227162153249,-23.068503323497005,-134.94589508937912,"(0.9740269748939805, 0.0076655847925960075, -0.22607229921805597, -0.010198358442925883)",0.7410904852532012,depth,0,0,-0.2549999999999976
20190731_213147,-0.4569936112386192,0.021858718470084117,-0.026168534997040794,0.0,0.0,0.0,0.0,0.0,0.0,-42.18859095311528,-20.9557717530269,-132.41010345922697,"(0.9738988393986844, 0.007680656382580629, -0.22662001924177, -0.010267668395902976)",0.7159847615049174,depth,0,0,-0.3299999999999977
20190731_213147,-0.45786573551688386,0.021930168721063292,-0.02638515087841643,0.0,0.0,0.0,0.0,0.0,0.0,-43.62018761102924,-24.275778506622775,-134.94589508937912,"(0.9737986568294222, 0.00768421776587421, -0.2270458498953983, -0.010359092615473206)",0.7988624940046922,depth,0,0,-0.40499999999999775
20190731_213147,-0.4588313621947868,0.021872634433033694,-0.026511549344831915,0.0,0.0,0.0,0.0,0.0,0.0,-42.761229616280865,-20.352134161464008,-134.10063121266174,"(0.9736886224119239, 0.007634423669039032, -0.22751613973487148, -0.01042057200704765)",0.6868015865358887,depth,0,0,-0.4799999999999978
20190731_213147,-0.4597237231846747,0.021899072430398212,-0.026616918085241192,0.0,0.0,0.0,0.0,0.0,0.0,-42.18859095311528,-23.973959710841335,-134.10063121266174,"(0.9735864874151398, 0.007628414778579862, -0.2279510683916459, -0.010462754404222247)",0.7649306638682573,depth,0,0,-0.5549999999999978
20190731_213147,-0.4605955941717754,0.021931841140918864,-0.02673430540836937,0.0,0.0,0.0,0.0,0.0,0.0,-41.32963295836691,-20.653952957245455,-133.25536733594436,"(0.9734864064381052, 0.007624223826040418, -0.22837605786213583, -0.01051018014236551)",0.6695853405439796,depth,0,0,-0.6149999999999979
20190731_213147,-0.4614602272266971,0.021912015973680938,-0.02687818583271173,0.0,0.0,0.0,0.0,0.0,0.0,-43.906506942612026,-22.76668452771556,-135.7911589660965,"(0.9733870252159155, 0.007591406814124067, -0.2287973044250292, -0.01057653874071094)",0.747270186033916,depth,0,0,-0.6749999999999979
20190731_213147,-0.46240889639790467,0.021887989441497172,-0.02706656306485836,0.0,0.0,0.0,0.0,0.0,0.0,-44.19282627419482,-22.464865731934115,-133.25536733594436,"(0.9732776161013597, 0.007550726643040556, -0.2292595430706338, -0.010664447208392705)",0.7713665226600569,depth,0,0,-0.749999999999998
20190731_213148,-0.4631664184492858,0.021890414984772438,-0.02720902629975607,0.0,0.0,0.0,0.0,0.0,0.0,-39.039078305704564,-23.67214091505989,-134.38238583823417,"(0.9731900500402133, 0.007529610763844879, -0.22962869039292427, -0.010728280985451786)",0.6857234153945193,depth,0,0,-0.8249999999999981
20190731_213148,-0.46389649953582607,0.021921133702872336,-0.0273991649067422,0.0,0.0,0.0,0.0,0.0,0.0,-40.18435563203573,-20.653952957245455,-132.1283488336545,"(0.9731051280334865, 0.007516941980635871, -0.22998478430476837, -0.010812232261714351)",0.649645992881639,depth,0,0,-0.8999999999999981
20190731_213148,-0.4647407052241995,0.021927152644161594,-0.027557164554532585,0.0,0.0,0.0,0.0,0.0,0.0,-42.18859095311528,-25.181234893967105,-136.35466821724143,"(0.9730072081847615, 0.0074949776716583295, -0.23039611045011746, -0.0108825741281736)",0.753844794209152,depth,0,0,-0.9749999999999982
20190731_213148,-0.4655050518356163,0.021849390691605908,-0.02772640217781289,0.0,0.0,0.0,0.0,0.0,0.0,-43.04754894786365,-21.86122814037123,-134.38238583823417,"(0.9729185640164086, 0.007431533184287429, -0.2307681309884639, -0.010968583631055637)",0.7090678273807027,depth,0,0,-1.0649999999999977
20190731_213148,-0.4661288855228828,0.02187957641203836,-0.027921629752137314,0.0,0.0,0.0,0.0,0.0,0.0,-41.90227162153249,-23.068503323497005,-130.43782108021975,"(0.9728454413929422, 0.007418666964209429, -0.23107245837472146, -0.011055746112689006)",0.7567020888840733,depth,0,0,-1.1399999999999972
20190731_213148,-0.46700701730197336,0.021946246546668217,-0.02813522357660821,0.0,0.0,0.0,0.0,0.0,0.0,-41.32963295836691,-23.67214091505989,-134.94589508937912,"(0.9727425896735861, 0.007419296536900353, -0.23150071025400676, -0.011145825492668942)",0.7103890866608144,depth,0,0,-1.2149999999999967
20190731_213148,-0.46747697845904124,0.02199455476361039,-0.028238427058540135,0.0,0.0,0.0,0.0,0.0,0.0,-45.051784268943194,-19.748496569901125,-135.22764971495155,"(0.9726874798417584, 0.0074270209282408985, -0.23172991531837342, -0.011187147346840367)",0.6761595576576223,depth,0,0,-1.2749999999999964
20190731_213148,-0.46842102763660803,0.02202100593345319,-0.028373847291000762,0.0,0.0,0.0,0.0,0.0,0.0,-43.33386827944644,-22.76668452771556,-133.53712196151682,"(0.9725772745903181, 0.00741647649414046, -0.2321896384955821, -0.011243335900532834)",0.7370879193299084,depth,0,0,-1.3499999999999959
20190731_213148,-0.46895080128052546,0.02206758337013692,-0.028512782366451803,0.0,0.0,0.0,0.0,0.0,0.0,-43.906506942612026,-22.76668452771556,-132.41010345922697,"(0.9725148613420799, 0.007418645546440956, -0.23244801165555545, -0.011301771738550246)",0.7596378987989492,depth,0,0,-1.4249999999999954
20190731_213149,-0.4696527679016717,0.0221249339776932,-0.028678990543460233,0.0,0.0,0.0,0.0,0.0,0.0,-40.75699429520131,-20.653952957245455,-135.50940434052404,"(0.9724321688794821, 0.007421418098325901, -0.23279024956235533, -0.011370980188738219)",0.6114643813348806,depth,0,0,-1.484999999999995
20190731_213149,-0.47040226652546185,0.022185877930519828,-0.028876714470181867,0.0,0.0,0.0,0.0,0.0,0.0,-45.33810360052598,-18.843040182556795,-132.69185808479943,"(0.972343624144094, 0.007421806451411611, -0.2331557049327317, -0.011454720976407868)",0.6738980195922494,depth,0,0,-1.4550000000000003
20190731_213149,-0.4710834676575234,0.022185919019640874,-0.02901021180210597,0.0,0.0,0.0,0.0,0.0,0.0,-43.62018761102924,-20.653952957245455,-135.50940434052404,"(0.9722634942908435, 0.00740057881757395, -0.2334873415011885, -0.01151479314757311)",0.6580299703626925,depth,0,0,-1.3800000000000008
20190731_213149,-0.47172964262655515,0.02211246002500261,-0.02918378321016974,0.0,0.0,0.0,0.0,0.0,0.0,-41.32963295836691,-23.068503323497005,-132.1283488336545,"(0.972187375442414, 0.0073391869648535574, -0.23380164610822246, -0.0116031737973375)",0.7097673662190648,depth,0,0,-1.3050000000000013
20190731_213149,-0.4724325733732329,0.02210472891704921,-0.029306133592954572,0.0,0.0,0.0,0.0,0.0,0.0,-43.04754894786365,-20.05031536568257,-132.1283488336545,"(0.9721045694175127, 0.007315210994449697, -0.23414369847250965, -0.011658570723444854)",0.6618729992880457,depth,0,0,-1.2300000000000018
20190731_213149,-0.47315417413650845,0.0221753301834487,-0.029500156686160017,0.0,0.0,0.0,0.0,0.0,0.0,-41.32963295836691,-21.86122814037123,-131.5648395825096,"(0.9720187477095703, 0.007320702076855157, -0.2344955141012073, -0.01173947565401377)",0.6810223447964604,depth,0,0,-1.1400000000000023
20190731_213149,-0.47375161811914596,0.02224089390980761,-0.029634026055969234,0.0,0.0,0.0,0.0,0.0,0.0,-45.051784268943194,-23.370322119278445,-134.10063121266174,"(0.9719477228578774, 0.007331789469621771, -0.234786719964279, -0.01179258338851736)",0.7630908525758204,depth,0,0,-1.0650000000000028
20190731_213149,-0.47430350801364535,0.022243697771671345,-0.02981165216206918,0.0,0.0,0.0,0.0,0.0,0.0,-40.47067496361852,-22.16304693615267,-132.9736127103719,"(0.9718819249744417, 0.007307581602369454, -0.23505556020887414, -0.011874627320077448)",0.6561112379702733,depth,0,0,-0.9900000000000032
20190731_213150,-0.474828664878993,0.022204841063068748,-0.029979523299850683,0.0,0.0,0.0,0.0,0.0,0.0,-41.32963295836691,-24.87941609818567,-134.94589508937912,"(0.9718193970776698, 0.007264459505793884, -0.23531110678246017, -0.011957011185778472)",0.715414929824794,depth,0,0,-0.9150000000000031
20190731_213150,-0.4753698898562045,0.02220702043394438,-0.030154541942522445,0.0,0.0,0.0,0.0,0.0,0.0,-41.32963295836691,-19.446677774119678,-132.69185808479943,"(0.9717547132902371, 0.007240254427305896, -0.235574710962642, -0.012037917963868003)",0.5989785097642911,depth,0,0,-0.8400000000000031
20190731_213150,-0.4760133496694823,0.022171933695073715,-0.030257521446212163,0.0,0.0,0.0,0.0,0.0,0.0,-42.47491028469807,-23.67214091505989,-133.25536733594436,"(0.9716784819344214, 0.007205506783484487, -0.23588747613767908, -0.012087473640405367)",0.721675710311784,depth,0,0,-0.765000000000003
20190731_213150,-0.47642892170982454,0.02218907450545834,-0.03042992586863385,0.0,0.0,0.0,0.0,0.0,0.0,-42.18859095311528,-21.559409344589785,-133.53712196151682,"(0.9716284076638142, 0.007189884786628244, -0.23609008003856294, -0.012166227222145)",0.6599880821223384,depth,0,0,-0.6750000000000029
20190731_213150,-0.476934846922287,0.022197872023004883,-0.030640838992962063,0.0,0.0,0.0,0.0,0.0,0.0,-43.62018761102924,-21.25759054880834,-136.6364228428139,"(0.9715674180657697, 0.00716483313324433, -0.23633664837650883, -0.012264010491886919)",0.64587921053349,depth,0,0,-0.6000000000000029
20190731_213150,-0.47765560472026225,0.022203306946885652,-0.030834683022852947,0.0,0.0,0.0,0.0,0.0,0.0,-43.62018761102924,-21.86122814037123,-134.94589508937912,"(0.9714810912121272, 0.007138223386340326, -0.2366874627450466, -0.012352334333784014)",0.6762036188492296,depth,0,0,-0.5250000000000028
20190731_213150,-0.4780275425476588,0.022180816611499864,-0.030997256591008555,0.0,0.0,0.0,0.0,0.0,0.0,-44.47914560577761,-21.559409344589785,-134.66414046380666,"(0.9714361926354669, 0.007104771214331831, -0.23686854829328316, -0.012431278829335294)",0.6864338702485883,depth,0,0,-0.45000000000000273
20190731_213150,-0.47858798328396673,0.022163563968914193,-0.031163901900617255,0.0,0.0,0.0,0.0,0.0,0.0,-41.90227162153249,-23.068503323497005,-136.07291359166894,"(0.9713688948889052, 0.007071677595206633, -0.23714121523673345, -0.01251021400063899)",0.6626293269420881,depth,0,0,-0.37500000000000266
20190731_213150,-0.479068804235607,0.022225529775980375,-0.031383313517819186,0.0,0.0,0.0,0.0,0.0,0.0,-42.18859095311528,-25.181234893967105,-135.22764971495155,"(0.9713103397063018, 0.0070714596647167925, -0.23737588055203757, -0.012605941852317868)",0.722757473684259,depth,0,0,-0.3000000000000026
20190731_213151,-0.4795208639880761,0.022235450305198506,-0.03154383441046126,0.0,0.0,0.0,0.0,0.0,0.0,-43.62018761102924,-21.86122814037123,-135.50940434052404,"(0.9712556878306422, 0.007053166626677688, -0.23759603030641585, -0.012679435310579534)",0.6650762693607398,depth,0,0,-0.24000000000000254
20190731_213151,-0.4800610307845884,0.02222477831945827,-0.031668026308749105,0.0,0.0,0.0,0.0,0.0,0.0,-46.197061595274356,-20.352134161464008,-134.66414046380666,"(0.971190822213055, 0.007028363644369778, -0.23785868843487443, -0.012737083247512873)",0.6811428681174032,depth,0,0,-0.1800000000000025
20190731_213151,-0.4804867839385713,0.02219683116105617,-0.03183179182231025,0.0,0.0,0.0,0.0,0.0,0.0,-42.761229616280865,-21.559409344589785,-135.7911589660965,"(0.9711392902663979, 0.006991463712601716, -0.23806580432943783, -0.01281683053684532)",0.6371438719498534,depth,0,0,-0.10500000000000245
20190731_213151,-0.48084840158086495,0.022317419458266423,-0.03202363256654951,0.0,0.0,0.0,0.0,0.0,0.0,-42.761229616280865,-20.352134161464008,-135.7911589660965,"(0.971094636688926, 0.007023890505950476, -0.23824282280777584, -0.012892980134399844)",0.6041121102111688,depth,0,0,-0.045000000000002455
20190731_213151,-0.481363825217819,0.02232989570392056,-0.03218400329502034,0.0,0.0,0.0,0.0,0.0,0.0,-44.19282627419482,-20.05031536568257,-133.81887658708928,"(0.9710322155540482, 0.007006132039139033, -0.23849369848710622, -0.012965579508378528)",0.6385891625619711,depth,0,0,0.029999999999997543
20190731_213151,-0.48189132552658176,0.022241933826235905,-0.03233295676212815,0.0,0.0,0.0,0.0,0.0,0.0,-43.33386827944644,-21.559409344589785,-136.35466821724143,"(0.9709687092312885, 0.0069408230476670114, -0.23874972478920237, -0.013044523073933362)",0.6375891242484069,depth,0,0,0.10499999999999754
20190731_213151,-0.48220326115582074,0.022303328158994218,-0.03253685879701478,0.0,0.0,0.0,0.0,0.0,0.0,-40.75699429520131,-20.05031536568257,-133.25536733594436,"(0.9709299672063226, 0.006943409330905648, -0.2389022577472355, -0.01313389092638914)",0.5832286467554747,depth,0,0,0.17999999999999755
20190731_213151,-0.48250630133272204,0.02238169184782517,-0.032687822057393824,0.0,0.0,0.0,0.0,0.0,0.0,-44.19282627419482,-20.653952957245455,-134.94589508937912,"(0.970892545004353, 0.006960609928981838, -0.23905039769090658, -0.013195579873826056)",0.6402215573429269,depth,0,0,0.2549999999999976
20190731_213151,-0.482830065061005,0.022344175939281483,-0.03282522481718608,0.0,0.0,0.0,0.0,0.0,0.0,-41.90227162153249,-23.67214091505989,-136.07291359166894,"(0.9708531132074072, 0.00692296307275907, -0.23920777896815268, -0.013264374802532338)",0.6651701526792952,depth,0,0,0.3299999999999977
20190731_213152,-0.4833480103566435,0.02238233964271319,-0.03300445495632612,0.0,0.0,0.0,0.0,0.0,0.0,-44.47914560577761,-23.370322119278445,-135.7911589660965,"(0.970789900570608, 0.0069152098119835675, -0.2394600463019078, -0.013342977495812869)",0.7036759255955274,depth,0,0,0.40499999999999775
20190731_213152,-0.48364432001566926,0.0223034919293502,-0.0331009071828538,0.0,0.0,0.0,0.0,0.0,0.0,-40.75699429520131,-21.86122814037123,-134.94589508937912,"(0.9707540926845859, 0.00686261337339098, -0.23960366289431725, -0.01339704450392885)",0.6114869708850024,depth,0,0,0.4799999999999978
20190731_213152,-0.48414434580403043,0.022152626263613282,-0.033204482517339734,0.0,0.0,0.0,0.0,0.0,0.0,-42.18859095311528,-25.181234893967105,-136.35466821724143,"(0.9706940666400321, 0.006772285325106443, -0.23984567440673873, -0.013461709018131224)",0.6987371483548716,depth,0,0,0.5549999999999978
20190731_213152,-0.48441047246297214,0.022106186586083508,-0.03332691255777579,0.0,0.0,0.0,0.0,0.0,0.0,-44.19282627419482,-21.86122814037123,-136.6364228428139,"(0.9706615217242157, 0.006732558830427712, -0.23997492432238998, -0.013524740000749593)",0.6508997736270673,depth,0,0,0.6299999999999979
20190731_213152,-0.4847974855962428,0.022115540533421907,-0.03349846648453393,0.0,0.0,0.0,0.0,0.0,0.0,-42.761229616280865,-20.352134161464008,-133.53712196151682,"(0.9706139412009788, 0.00671285484388688, -0.24016337204225227, -0.013604023501984292)",0.6155975978778112,depth,0,0,0.704999999999998
20190731_213152,-0.48518161762957807,0.022166268204869444,-0.033685415635967636,0.0,0.0,0.0,0.0,0.0,0.0,-41.32963295836691,-21.86122814037123,-136.07291359166894,"(0.9705664196170277, 0.006711373110235208, -0.24035074578272353, -0.013685816908301968)",0.6073096198465742,depth,0,0,0.794999999999998
20190731_213152,-0.4858201272948623,0.022138716346505723,-0.033879023742995125,0.0,0.0,0.0,0.0,0.0,0.0,-41.04331362678411,-21.559409344589785,-132.9736127103719,"(0.9704885157386035, 0.006668637500649671, -0.24066102110497117, -0.013778353097529745)",0.6211853763419315,depth,0,0,0.8699999999999981
20190731_213152,-0.48594930177421436,0.022095846087780487,-0.03400243227703688,0.0,0.0,0.0,0.0,0.0,0.0,-41.90227162153249,-23.068503323497005,-134.94589508937912,"(0.9704722839958084, 0.006631747821768705, -0.2407238102416279, -0.013842438352408018)",0.6540008109686134,depth,0,0,0.9449999999999982
20190731_213152,-0.4862963793929177,0.02220569331329868,-0.034229869049507,0.0,0.0,0.0,0.0,0.0,0.0,-39.039078305704564,-22.464865731934115,-131.5648395825096,"(0.9704286135928567, 0.006654328670593126, -0.24089372358671374, -0.01393699274297654)",0.6230469784566727,depth,0,0,1.019999999999998
20190731_213153,-0.48651306654864673,0.022346779688980065,-0.034461819019057476,0.0,0.0,0.0,0.0,0.0,0.0,-43.33386827944644,-22.16304693615267,-134.66414046380666,"(0.9704004561768641, 0.0066927447903886534, -0.24100061222606495, -0.014030920339264855)",0.6561075926682269,depth,0,0,1.0949999999999975
20190731_213153,-0.4868052556576764,0.02247152907991504,-0.03470258475677113,0.0,0.0,0.0,0.0,0.0,0.0,-39.61171696887015,-24.87941609818567,-133.25536733594436,"(0.9703631783304377, 0.0067214053126960814, -0.24114405178527937, -0.014130503871129461)",0.6707567109089722,depth,0,0,1.169999999999997
20190731_213153,-0.4871801644817078,0.022466495125986162,-0.034905211000904345,0.0,0.0,0.0,0.0,0.0,0.0,-41.90227162153249,-23.068503323497005,-134.38238583823417,"(0.9703166092412376, 0.006690849549196158, -0.24132657234205004, -0.01422658935003789)",0.6547368860014992,depth,0,0,1.2449999999999966
20190731_213153,-0.4875728418012741,0.02243195958142927,-0.03506839197660328,0.0,0.0,0.0,0.0,0.0,0.0,-41.32963295836691,-23.068503323497005,-130.43782108021975,"(0.9702682347522392, 0.006650532596784406, -0.2415173575634768, -0.014306957835558062)",0.6815792967051305,depth,0,0,1.334999999999996
20190731_213153,-0.4879062442026337,0.022513222299780967,-0.035269436615010065,0.0,0.0,0.0,0.0,0.0,0.0,-43.04754894786365,-23.67214091505989,-136.07291359166894,"(0.9702263109443967, 0.006662372498465143, -0.24168033520852394, -0.014392147769337164)",0.6701598160713564,depth,0,0,1.4099999999999955
20190731_213153,-0.48806544305263166,0.022739380127367887,-0.03551816463863597,0.0,0.0,0.0,0.0,0.0,0.0,-42.18859095311528,-23.370322119278445,-134.66414046380666,"(0.970204547702931, 0.0067404378251065475, -0.24176002217022352, -0.014484260241039748)",0.6607919106677017,depth,0,0,1.484999999999995
20190731_213153,-0.48825829998309606,0.022984125636403334,-0.035773477015630634,0.0,0.0,0.0,0.0,0.0,0.0,-41.615952289949696,-20.9557717530269,-135.22764971495155,"(0.970178583610343, 0.00682636070977851, -0.24185621085846498, -0.014577035791773236)",0.5858354976487548,depth,0,0,1.4550000000000003
20190731_213153,-0.4884382325230422,0.023178843056063325,-0.03600236152733551,0.0,0.0,0.0,0.0,0.0,0.0,-43.62018761102924,-21.25759054880834,-133.81887658708928,"(0.9701545159154927, 0.006891313943468273, -0.2419456924497528, -0.014663115150545723)",0.6378240653219227,depth,0,0,1.3800000000000008
20190731_213153,-0.4886686192766059,0.023280730931458257,-0.03624153609709731,0.0,0.0,0.0,0.0,0.0,0.0,-42.18859095311528,-21.559409344589785,-134.10063121266174,"(0.9701245745915947, 0.006909454242915322, -0.2420590092029322, -0.014765001836687698)",0.6181157532603986,depth,0,0,1.3050000000000013
20190731_213154,-0.488892572370889,0.02339324186005246,-0.03649138943786436,0.0,0.0,0.0,0.0,0.0,0.0,-45.051784268943194,-22.76668452771556,-131.28308495693713,"(0.9700952691174715, 0.0069314902695973265, -0.24216932540641123, -0.014870814057975251)",0.7274228355927447,depth,0,0,1.2450000000000017
20190731_213154,-0.4891210245611252,0.023558319941500566,-0.03678335088288848,0.0,0.0,0.0,0.0,0.0,0.0,-42.18859095311528,-22.76668452771556,-134.66414046380666,"(0.9700648947983035, 0.006973844956490776, -0.24228236929946084, -0.014990626842091613)",0.6408097017993802,depth,0,0,1.1550000000000022
20190731_213154,-0.48944553254905826,0.023549433191695165,-0.036933387765018574,0.0,0.0,0.0,0.0,0.0,0.0,-40.47067496361852,-20.9557717530269,-134.10063121266174,"(0.9700245427232621, 0.006947989574420431, -0.24244020130217261, -0.015061897223197064)",0.5735785926380688,depth,0,0,1.0800000000000027
20190731_213154,-0.48978798835064485,0.02351203136720283,-0.037078569434646116,0.0,0.0,0.0,0.0,0.0,0.0,-42.18859095311528,-21.559409344589785,-132.41010345922697,"(0.9699821218703784, 0.0069086831048736684, -0.24260649545686128, -0.015134124082175564)",0.6301533770950283,depth,0,0,1.0050000000000032
20190731_213154,-0.48996844531130285,0.02352096417881957,-0.037212889275303515,0.0,0.0,0.0,0.0,0.0,0.0,-44.19282627419482,-24.87941609818567,-133.25536733594436,"(0.9699592167771302, 0.006894836199800373, -0.24269453613729516, -0.015196748072439762)",0.7365281812738653,depth,0,0,0.9300000000000032
20190731_213154,-0.4901947481315223,0.023580750876888813,-0.03740841125471514,0.0,0.0,0.0,0.0,0.0,0.0,-43.04754894786365,-19.446677774119678,-132.69185808479943,"(0.9699301015053692, 0.006897728885828373, -0.2428054044353788, -0.01528250983883275)",0.5838352781211927,depth,0,0,0.8400000000000031
20190731_213154,-0.49043732721226013,0.023693091486936397,-0.03754506815375174,0.0,0.0,0.0,0.0,0.0,0.0,-43.906506942612026,-22.16304693615267,-132.41010345922697,"(0.9698992622438952, 0.0069330623369262675, -0.242924364269222, -0.015333198941331418)",0.6728882347748881,depth,0,0,0.765000000000003
20190731_213154,-0.4907324706558146,0.02372284153708432,-0.0377349410018677,0.0,0.0,0.0,0.0,0.0,0.0,-44.47914560577761,-23.973959710841335,-130.7195757057922,"(0.9698619039122978, 0.006921301594104775, -0.24306836159300155, -0.015419290397116333)",0.7449843674763111,depth,0,0,0.6900000000000029
20190731_213154,-0.4907372214551637,0.023698218189550247,-0.03791918832306891,0.0,0.0,0.0,0.0,0.0,0.0,-41.90227162153249,-21.86122814037123,-133.25536733594436,"(0.9698599878258751, 0.006886918093454166, -0.2430711107680469, -0.015511591909125896)",0.6221894403956912,depth,0,0,0.6150000000000029
20190731_213155,-0.49108648810097655,0.02376376202395947,-0.03812115431366064,0.0,0.0,0.0,0.0,0.0,0.0,-43.04754894786365,-22.464865731934115,-133.81887658708928,"(0.9698158044696331, 0.0068904235948151725, -0.2432416630524015, -0.015598744151508569)",0.6496096600707267,depth,0,0,0.5400000000000028
20190731_213155,-0.4912921086360263,0.023724735943395792,-0.038215774210123225,0.0,0.0,0.0,0.0,0.0,0.0,-42.18859095311528,-20.9557717530269,-135.22764971495155,"(0.9697902317896624, 0.00685779004880243, -0.24334137779123294, -0.01564771215429859)",0.5845396077553869,depth,0,0,0.46500000000000274
20190731_213155,-0.4916141101725849,0.02360720615436356,-0.03833054043958945,0.0,0.0,0.0,0.0,0.0,0.0,-41.04331362678411,-20.9557717530269,-134.10063121266174,"(0.9697506127986895, 0.006783382034564414, -0.24349696371023527, -0.015715068203347404)",0.5767995158592183,depth,0,0,0.3900000000000027
20190731_213155,-0.49187155387298687,0.023606287774258602,-0.03850090012192362,0.0,0.0,0.0,0.0,0.0,0.0,-42.47491028469807,-20.653952957245455,-134.38238583823417,"(0.9697179790240469, 0.006759422834891374, -0.24362234505024818, -0.015795706779853102)",0.5875746484052713,depth,0,0,0.3150000000000026
20190731_213155,-0.49212417312848855,0.023666310830734137,-0.038624056108307575,0.0,0.0,0.0,0.0,0.0,0.0,-41.90227162153249,-21.25759054880834,-133.81887658708928,"(0.9696860779620456, 0.006770794280252967, -0.2437457051264802, -0.015846065246457142)",0.59850797224442,depth,0,0,0.24000000000000254
20190731_213155,-0.4923531309085245,0.023679359091655635,-0.03876170037921132,0.0,0.0,0.0,0.0,0.0,0.0,-41.04331362678411,-24.57759730240422,-134.10063121266174,"(0.9696570818143745, 0.0067578638016733104, -0.24385726840373656, -0.01590935607551392)",0.661574439874211,depth,0,0,0.15000000000000246
20190731_213155,-0.4924784386730186,0.023704680924145856,-0.03889529378905079,0.0,0.0,0.0,0.0,0.0,0.0,-44.19282627419482,-20.653952957245455,-133.81887658708928,"(0.969640678987922, 0.0067524891364923526, -0.24391866668193576, -0.015970021490593962)",0.6187678513116244,depth,0,0,0.07500000000000245
20190731_213155,-0.4927224172570875,0.023777614285459582,-0.039119503926895685,0.0,0.0,0.0,0.0,0.0,0.0,-40.47067496361852,-23.973959710841335,-134.66414046380666,"(0.9696089288614334, 0.006757836787869517, -0.24403827820003446, -0.01606784015650647)",0.6331181599309355,depth,0,0,0.015000000000002456
20190731_213156,-0.49289794784899676,0.023823558336628338,-0.03929737477176787,0.0,0.0,0.0,0.0,0.0,0.0,-42.47491028469807,-17.635764999431018,-136.07291359166894,"(0.9695859589561503, 0.006756479852513952, -0.24412433619029789, -0.01614703238156766)",0.48737351729999256,depth,0,0,-0.07499999999999754
20190731_213156,-0.49300404145860666,0.02376836720790834,-0.03948797054839233,0.0,0.0,0.0,0.0,0.0,0.0,-40.47067496361852,-20.352134161464008,-135.7911589660965,"(0.9695716739621292, 0.0067052897110887934, -0.24417595767974165, -0.016245301823792035)",0.5359064868040608,depth,0,0,-0.13499999999999754
20190731_213156,-0.4931236633303686,0.02373934345865512,-0.03967497677248945,0.0,0.0,0.0,0.0,0.0,0.0,-42.761229616280865,-17.333946203649575,-132.41010345922697,"(0.9695556687731629, 0.006667064504487776, -0.24423433008138098, -0.016338525344010726)",0.5128783259446461,depth,0,0,-0.20999999999999758
20190731_213156,-0.4934449553673957,0.02373322916112535,-0.03979872031142412,0.0,0.0,0.0,0.0,0.0,0.0,-43.906506942612026,-22.16304693615267,-131.84659420808205,"(0.9695155020821824, 0.006645424295334447, -0.24439042541361283, -0.016396631496195784)",0.6700785813606095,depth,0,0,-0.2549999999999976
20190731_213156,-0.4936468591982968,0.023763275433013764,-0.04003182663891814,0.0,0.0,0.0,0.0,0.0,0.0,-42.47491028469807,-23.67214091505989,-135.50940434052404,"(0.9694888547350644, 0.006629252807776315, -0.24448930756955314, -0.01650430355587114)",0.6471537213754042,depth,0,0,-0.3299999999999977
20190731_213156,-0.4937739601385059,0.023820408186434258,-0.04018244637320617,0.0,0.0,0.0,0.0,0.0,0.0,-42.761229616280865,-21.559409344589785,-133.53712196151682,"(0.9694719098652883, 0.006637112236336821, -0.24455188303577155, -0.016569285650595105)",0.6176755643536695,depth,0,0,-0.40499999999999775
20190731_213156,-0.49393759143720406,0.02382409893172893,-0.04039563327150207,0.0,0.0,0.0,0.0,0.0,0.0,-43.04754894786365,-20.05031536568257,-134.94589508937912,"(0.9694501526747564, 0.006610993290891146, -0.24463192727479033, -0.016670824947223307)",0.5695438490642709,depth,-0.0047235,1,-0.4799999999999978
20190731_213156,-0.4939892485203433,0.023802718343070975,-0.040526104559580396,0.0,0.0,0.0,0.0,0.0,0.0,-41.04331362678411,-22.16304693615267,-134.10063121266174,"(0.9694428267900205, 0.006584088312365033, -0.24465721545105712, -0.01673625687554839)",0.6007221520016345,depth,-0.014170499999999999,1,-0.5549999999999978
20190731_213156,-0.49416970749669165,0.023816855092356704,-0.04070165976063959,0.0,0.0,0.0,0.0,0.0,0.0,-42.47491028469807,-21.86122814037123,-136.6364228428139,"(0.9694192706736274, 0.006567422300033618, -0.24474537184298986, -0.016818132250109148)",0.5923252812124411,depth,-0.025191999999999996,1,-0.6449999999999979
20190731_213157,-0.49426313510404096,0.02382202851536155,-0.04089878779282106,0.0,0.0,0.0,0.0,0.0,0.0,-43.33386827944644,-19.748496569901125,-135.7911589660965,"(0.9694061793592795, 0.006544744597281785, -0.24479134106643963, -0.01691227592888738)",0.5575648712164537,depth,-0.05983099999999999,1,-0.719999999999998
20190731_213157,-0.49432643408816296,0.02391162363932347,-0.04110391291014487,0.0,0.0,0.0,0.0,0.0,0.0,-40.47067496361852,-22.76668452771556,-133.53712196151682,"(0.9693964136848787, 0.0065623419322069975, -0.24482345008361778, -0.017000208599154604)",0.6104562585971205,depth,-0.09604450000000013,1,-0.794999999999998
